충전소명,충전소위치상세,설치시도명,휴점일,이용가능시작시각,이용가능종료시각,완속충전가능여부,급속충전가능여부,급속충전타입구분,완속충전기대수,급속충전기대수,주차료부과여부,소재지도로명주소,소재지지번주소,관리업체명,관리업체전화번호,위도,경도,데이터기준일자,제공기관코드,제공기관명,
여산휴게소(순천방향),여산휴게소,전라북도,연중무휴,00:00,23:00,N,Y,,0,1,N,전라북도 익산시 여산면 호남고속도로 191,전라북도 익산시 호산리 산 32-6,한국자동차환경협회,1661-9408,36.048553,127.102336,2018-08-14,4680000,전라북도 익산시,
한국전력공사익산지사,한전 본관 옆 주차장,전라북도,연중무휴,06:00,23:00,N,Y,,0,2,N,전라북도 익산시 석암로15길 156,전라북도 익산시 팔봉동 850,한국전력,1899-2100,35.961737,127.004473,2018-08-14,4680000,전라북도 익산시,
함열올림픽 스포츠센터,함열올림픽 스포츠센터 주차장,전라북도,연중무휴,00:00,23:00,N,Y,,0,1,N,전라북도 익산시 함열읍 함낭로 511,전라북도 익산시 함열읍 와리 173-7,한국자동차환경협회,1661-9408,36.074967,126.963986,2018-08-14,4680000,전라북도 익산시,
익산시청,익산시청 제2청사 주차장,전라북도,연중무휴,00:00,23:00,Y,N,,1,0,N,전라북도 익산시 인북로38길 1,전라북도 익산시 남중동 86-8,전라북도 익산시청,063-859-5538,35.948357,126.957688,2018-08-14,4680000,전라북도 익산시,
익산시청,익산시청 본청 뒷편,전라북도,연중무휴,00:00,23:00,Y,N,,1,0,N,전라북도 익산시 인북로32길 1,전라북도 익산시 남중동 60,전라북도 익산시청,063-859-5664,35.948357,126.957688,2018-08-14,4680000,전라북도 익산시,
익산시청,익산시청 본청 뒷편,전라북도,연중무휴,00:00,23:00,Y,N,,1,0,N,전라북도 익산시 인북로32길 1,전라북도 익산시 남중동 60,전라북도 익산시청,063-859-5436,35.948357,126.957688,2018-08-14,4680000,전라북도 익산시,
장성군민회관,장성군 장성읍 청운7길 10,전라남도,무,00:00,00:00,N,Y,"DC콤보, DC차데모, AC3상",0,1,N,전라남도 장성군 장성읍 청운7길 10,전라남도 장성군 장성읍 영천리 1485-5,한국자동차환경협회,1661-9408,35.181617,126.471087,2018-05-18,4980000,전라남도 장성군,
거창군청,거창군청 뒤편 주차장,경상남도,연중무휴,00:00,24:00,N,Y,AC3상+DC차데모,0,1,N,경상남도 거창군 거창읍 중앙로 103,경상남도 거창군 거창읍 상림리 64-1,한국환경공단(환경부),032-590-3678,35.411288,127.543817,2018-08-20,5470000,경상남도 거창군,
한전 거창지사,한전 1층 주차장,경상남도,연중무휴,06:00,23:00,N,Y,AC3상+DC차데모+DC콤보,0,1,N,경상남도 거창군 거창읍 강남로 246,경상남도 거창군 거창읍 대평리 1005-40,한국전력,1899-2100,35.687135,127.923655,2018-08-20,5470000,경상남도 거창군,
거창휴게소(고서방향),휴게소,경상남도,연중무휴,00:00,24:00,N,Y,AC3상+DC차데모+DC콤보,0,1,N,경상남도 거창군 가조면 가조가야로 1523,경상남도 거창군 가조면 도리 산181,한국자동차환경협회,1661-9408,35.708847,128.057955,2018-08-20,5470000,경상남도 거창군,
거창휴게소(고서방향),휴게소,경상남도,연중무휴,00:00,24:00,N,Y,AC3상+DC차데모+DC콤보,0,1,N,경상남도 거창군 가조면 가조가야로 1523,경상남도 거창군 가조면 도리 산181,한국자동차환경협회,1661-9408,35.706277,128.056925,2018-08-20,5470000,경상남도 거창군,
거창사과원예농협 하나로마트,마트앞 주차장,경상남도,연중무휴,00:00,24:00,N,Y,AC3상+DC차데모+DC콤보,0,1,N,경상남도 거창군 거창읍 수남로 2241,경상남도 거창군 거창읍 김천리 255,한국전력,1899-2100,35.679816,127.911302,2018-08-20,5470000,경상남도 거창군,
거창읍사무소,읍사무소 뒤편 주차장,경상남도,연중무휴,00:00,24:00,Y,N,,1,0,N,경상남도 거창군 거창읍 거열로 90,경상남도 거창군 거창읍 상림리 820,KT,1522-4700,35.688260,127.903849,2018-08-20,5470000,경상남도 거창군,
주상면사무소,주차장,경상남도,연중무휴,00:00,24:00,Y,N,,1,0,N,경상남도 거창군 주상면 주곡로 655,경상남도 거창군 주상면 도평리 713,KT,1522-4700,35.749508,127.913396,2018-08-20,5470000,경상남도 거창군,
남하면사무소,주차장,경상남도,연중무휴,00:00,24:00,Y,N,,1,0,N,경상남도 거창군 남하면 영서로 41,경상남도 거창군 남하면 무릉리 991-1,KT,1522-4700,35.668057,127.943564,2018-08-20,5470000,경상남도 거창군,
부산진구 건강증진센터,건강증진센터 지하주차장,부산광역시,연중무휴,01:00,24:00,Y,N,,1,0,Y,부산광역시 부산진구 시민공원로 30,,,051-605-6014,35.163151,129.053126,2018-08-09,3290000,부산광역시 부산진구,
종묘공영주차장,"서울특별시 종로구 종로 157, 지하주차장 4층 하층 T구역",서울특별시,연중무휴,00:00,23:59,N,Y,DC차데모+AC3상,0,1,Y,서울특별시 종로구 종로 157,서울특별시 종로구 훈정동 1-2,환경부(한국자동차환경협회),1661-9408,37.5712080,126.9954850,2018-08-16,3000000,서울특별시 종로구,
광화문열린마당주차장,서울특별시 종로구 세종로 76-2,서울특별시,연중무휴,00:00,23:59,Y,Y,DC차데모+AC3상+DC콤보,3,1,N,서울특별시 종로구 종로1길 55,서울특별시 종로구 세종로 76-2,한국전기차충전서비스,1522-1782,37.5751250,126.9783350,2018-08-16,3000000,서울특별시 종로구,
세종로공영주차장,"서울특별시 종로구 세종대로 189, 지하주차장 4층 D구역 계단실 앞",서울특별시,연중무휴,00:00,23:59,N,Y,DC차데모+AC3상+DC콤보,0,1,Y,서울특별시 종로구 세종대로 189,서울특별시 종로구 세종로 80-1,환경부(한국자동차환경협회),1661-9408,37.5733630,126.9758410,2018-08-16,3000000,서울특별시 종로구,
석탄회관 지하주차장,서울특별시 종로구 종로5길 58,서울특별시,공휴일,08:00,22:00,N,Y,DC차데모+AC3상+DC콤보,0,1,Y,서울특별시 종로구 종로5길 58,서울특별시 종로구 수송동 80-6,한국전력,02-758-3274,37.5729600,126.9803290,2018-08-16,3000000,서울특별시 종로구,
국립현대미술관 서울관 주차장,서울특별시 종로구 삼청로 30,서울특별시,연중무휴,00:00,23:59,N,Y,DC차데모+AC3상+DC콤보,0,2,Y,서울특별시 종로구 삼청로 30,서울특별시 종로구 소격동 165,한국전력,02-758-3274,37.5795190,126.9803790,2018-08-16,3000000,서울특별시 종로구,
서울시 서울디자인센터,서울특별시 종로구 율곡로 283 1층 현관 근처,서울특별시,연중무휴,00:00,23:59,Y,N,DC차데모+AC3상+DC콤보,1,0,Y,서울특별시 종로구 율곡로 283,서울특별시 종로구 종로6가 70-6,포스코ICT,1600-4047,37.5724650,127.0088720,2018-08-16,3000000,서울특별시 종로구,
성균관대학교 인문사회과학캠퍼스,서울특별시 종로구 성균관로 25-2 주차장,서울특별시,연중무휴,00:00,23:59,Y,N,DC차데모+AC3상+DC콤보,5,0,Y,서울특별시 종로구 성균관로25-2,서울특별시 종로구 명륜3가 53-21,포스코ICT,1600-4047,37.5872470,126.9930890,2018-08-16,3000000,서울특별시 종로구,
서울시청 차량지원실,서울특별시 종로구 송월길 52,서울특별시,평일운영,13:00,18:00,Y,N,DC차데모+AC3상+DC콤보,7,0,Y,서울특별시 종로구 송월길 52,서울특별시 종로구 신문로2가 1-43,한국전기차충전서비스,1522-1782,37.5706660,126.9663820,2018-08-16,3000000,서울특별시 종로구,
한국예술종합학교(종로),서울특별시 종로구 창경궁로 215 우측,서울특별시,연중무휴,00:00,23:59,N,Y,DC차데모+AC3상+DC콤보,0,1,Y,서울특별시 종로구 창경궁로 215,서울특별시 종로구 와룡동 2-70,환경부(한국자동차환경협회),1661-9408,37.5822870,126.9969840,2018-08-16,3000000,서울특별시 종로구,
태화빌딩,서울특별시 종로구 인사동5길 29 지상주차장,서울특별시,연중무휴,00:00,23:59,N,Y,DC차데모+AC3상+DC콤보,0,1,Y,서울특별시 종로구 인사동5길 29,서울특별시 종로구 인사동 194-27,환경부(한국자동차환경협회),1661-9408,37.5719710,126.9848270,2018-08-16,3000000,서울특별시 종로구,
종로구청,서울특별시 종로구 삼봉로 43,서울특별시,연중무휴,00:00,23:59,Y,N,AC3상,1,0,Y,서울특별시 종로구 삼봉로 43,서울특별시 종로구 수송동146-2,한국전기차충전서비스,1522-1782,37.5728550,126.9791270,2018-08-16,3000000,서울특별시 종로구,
종로구보건소,서울특별시 종로구 자하문로19길 36,서울특별시,연중무휴,00:00,23:59,Y,N,AC3상,1,0,Y,서울특별시 종로구 자하문로19길 36,서울특별시 종로구 옥인동 45-30,에버온,1661-7766,37.5818060,126.9692270,2018-08-16,3000000,서울특별시 종로구,
울산 동구 전하체육센터,외부 주차장,울산광역시,연중무휴,00:00,12:00,N,Y,AC3상+DC차데모+DC콤보,0,1,N,울산광역시 동구 봉수로 285(전하동),울산광역시 동구 전하동 559-8,환경부(한국자동차환경협회),1661-9408,35.511899,129.422282,2018-06-30,3710000,울산광역시 동구,
전하시장 공영주차장,외부 주차장,울산광역시,연중무휴,00:00,12:00,N,Y,AC3상+DC차데모+DC콤보,0,1,N,울산광역시 동구 녹수2길 10(전하동),울산광역시 동구 전하동 451-3,한국전력공사,1899-2100,35.513592,129.430963,2018-06-30,3710000,울산광역시 동구,
홍은1동주민센터 전기차충전소,홍은1동주민센터,서울특별시,"주말, 공휴일",09:00,18:00,Y,N,X,1,0,N,서울특별시 서대문구 홍은중앙로 85,서울특별시 서대문구 홍은동 11-853,한국전기차충전서비스(KEVCS),1522-1782,37.599694,126.9496939,2018-08-13,3120000,서울특별시 서대문구,
홍은2동주민센터 전기차충전소,홍은2동주민센터,서울특별시,"주말, 공휴일",09:00,18:00,Y,N,X,1,0,N,서울특별시 서대문구 모래내로 334,서울특별시 서대문구 홍은동 273-10,한국전기차충전서비스(KEVCS),1522-1782,37.5800601,126.9319514,2018-08-13,3120000,서울특별시 서대문구,
홍제견인차량보관소 주차장 전기차충전소,홍제견인차량보관소,서울특별시,X,00:00,00:00,Y,Y,"AC3상, DC차데모, DC콤보",1,1,N,서울특별시 서대문구 홍제내길 227,서울특별시 서대문구 홍제동 294-84,시그넷이브이주식회사,070-4618-6057,37.5907812,126.9388115,2018-08-13,3120000,서울특별시 서대문구,
홍제2동주민센터 전기차충전소,홍제2동주민센터,서울특별시,"주말, 공휴일",09:00,18:00,Y,N,X,1,0,N,서울특별시 서대문구 통일로34길 27,서울특별시 서대문구 홍제동 459-4,한국전기차충전서비스(KEVCS),1522-1782,37.5860597,126.947172,2018-08-13,3120000,서울특별시 서대문구,
홍제3동주민센터 전기차충전소,홍제3동주민센터,서울특별시,"주말, 공휴일",09:00,18:00,Y,N,X,1,0,N,서울특별시 서대문구 세검정로4길 32,서울특별시 서대문구 홍제동 7-13,한국전기차충전서비스(KEVCS),1522-1782,37.5937254,126.9475606,2018-08-13,3120000,서울특별시 서대문구,
북가좌1동주민센터 전기차충전소,북가좌1동주민센터,서울특별시,"주말, 공휴일",09:00,18:00,Y,N,X,1,0,N,서울특별시 서대문구 수색로100-55,서울특별시 서대문구 북가좌동 477,한국전기차충전서비스(KEVCS),1522-1782,37.5742842,126.9079675,2018-08-13,3120000,서울특별시 서대문구,
북가좌2동주민센터 전기차충전소,북가좌2동주민센터,서울특별시,"주말, 공휴일",09:00,18:00,Y,N,X,1,0,N,서울특별시 서대문구 응암로1길10,서울특별시 서대문구 북가좌동 324-13,한국전기차충전서비스(KEVCS),1522-1782,37.5814484,126.9089814,2018-08-13,3120000,서울특별시 서대문구,
남가좌1동주민센터 전기차충전소,남가좌1동주민센터,서울특별시,"주말, 공휴일",09:00,18:00,Y,N,X,1,0,N,서울특별시 서대문구 모래내로15길 37,서울특별시 서대문구 남가좌동 115-36,한국전기차충전서비스(KEVCS),1522-1782,37.5732691,126.9174743,2018-08-13,3120000,서울특별시 서대문구,
남가좌2동주민센터,남가좌2동주민센터,서울특별시,"주말, 공휴일",09:00,18:00,Y,N,X,1,0,N,서울특별시 서대문구 증가로10길 28,서울특별시 서대문구 남가좌동 342-7,한국전기차충전서비스(KEVCS),1522-1782,37.5758313,126.9195745,2018-08-13,3120000,서울특별시 서대문구,
천연동주민센터 전기차충전소,천연동주민센터,서울특별시,"주말, 공휴일",09:00,18:00,Y,N,X,1,0,N,서울특별시 서대문구 성산로 694,서울특별시 서대문구 영천동 101,한국전기차충전서비스(KEVCS),1522-1782,37.5710895,126.9568659,2018-08-13,3120000,서울특별시 서대문구,
신촌동주민센터 전기차중전소,신촌동주민센터,서울특별시,"주말, 공휴일",09:00,18:00,Y,N,X,1,0,N,서울특별시 서대문구 이화여대길 92-8,서울특별시 서대문구 대현동 142-4,한국전기차충전서비스(KEVCS),1522-1782,37.4705963,126.9518995,2018-08-13,3120000,서울특별시 서대문구,
충현동주민센터 전기차중전소,충현동주민센터,서울특별시,"주말, 공휴일",09:00,18:00,Y,N,X,1,0,N,서울특별시 서대문구 북아현로22길 38,서울특별시 서대문구 북아현동 1-90,한국전기차충전서비스(KEVCS),1522-1782,37.5647846,126.9525054,2018-08-13,3120000,서울특별시 서대문구,
홍은1동 제4공영주차장 전기차충전소,홍은1동 제4공영주차장,서울특별시,X,00:00,00:00,N,Y,"AC3상, DC차데모, DC콤보",0,1,Y,서울특별시 서대문구 홍은중앙로 125,서울특별시 서대문구 홍은동 11-23,한국전력 서대문은평지사,02-350-2264,37.6012903,126.949151,2018-08-13,3120000,서울특별시 서대문구,
서대문구청 광장 전기차충전소,서대문구청 광장,서울특별시,X,00:00,00:00,Y,Y,"AC3상, DC차데모, DC콤보",1,1,Y,서울특별시 서대문구 연희로 248,서울특별시 서대문구 연희동 168-6,한국자동차환경협회,1661-9408,37.5790419,126.9367548,2018-08-13,3120000,서울특별시 서대문구,
전기자동차 공공급속충전소 양산종합운동장,경상남도 양산시 양산대로 849(북부동) 종합운동장,경상남도,연중무휴,00:00,23:59,N,Y,전차종 충전가능,0,1,N,경상남도 양산시 양산대로 849(북부동),경상남도 양산시 북부동 533,한국환경공단,032-590-3682,35.344514,129.033779,2018-02-14,5380000,경상남도 양산시,
전기자동차 공공급속충전소 내원휴게소,경상남도 양산시 하북면 양산대로 1962 내원휴게소 주차장,경상남도,연중무휴,00:00,23:59,N,Y,전차종 충전가능,0,1,N,경상남도 양산시 하북면 양산대로 1962,경상남도 양산시 하북면 용연리 904-6,한국환경공단,032-590-3682,35.438473,129.071914,2018-02-14,5380000,경상남도 양산시,
전기자동차 공공완속충전소 웅상출장소,경상남도 양산시 진등길 40(웅상출장소 정문 입구 왼쪽편),경상남도,연중무휴,00:00,23:59,Y,N,전차종 충전가능,1,0,N,경상남도 양산시 진등길 40,경상남도 양산시 주진동 72-2,한국환경공단,032-590-3682,35.395401,129.154718,2018-02-14,5380000,경상남도 양산시,
전기자동차 급속충전소,충청남도 예산군 벚꽃로 214,충청남도,일요일,09:00,23:00,Y,Y,N,6,2,N,충청남도 예산군 벚꽃로 214,충청남도 예산군 예산읍 석양리 225-1,한국환경관리공단,032-590-4000,36.688568,126.827778,2018-08-20,4610000,충청남도 예산군,
전기자동차 급속충전소,충청남도 예산군 군청로 22,충청남도,일요일,09:00,23:00,Y,Y,N,6,2,N,충청남도 예산군 군청로 22,충청남도 예산군 예산읍 예산리 777,한국환경관리공단,032-590-4000,36.681762,126.846877,2018-08-20,4610000,충청남도 예산군,
이마트 문현점,부산광역시 남구 전포대로 91번길47,부산광역시,"매월 2,4주 일요일",10:00,24:00,N,Y,,,,N,부산광역시 남구 전포대로91번길47,,,,35.144541,129.064241,2018-08-20,3310000,부산광역시 남구,
영동읍사무소,영동읍사무소 주차장,충청북도,연중무휴,00:00,00:00,Y,Y,"DC차데모,AC3상,DC콤보",0,1,N,충청북도 영동군 영동읍 영동황간로 15,,한국자동차환경협회,1661-9408,36.1712292,127.7759854,2018-05-01,4440000,충청북도 영동군,
한국전력영동지사,한국전력영동지사 주차장,충청북도,연중무휴,06:00,23:00,Y,Y,"DC차데모,AC3상,DC콤보",0,1,N,충청북도 영동군 영동읍 학산영동로 1149 영동지사 사옥,,한국전력공사,1899-2100,36.1664033,127.7672425,2018-05-01,4440000,충청북도 영동군,
황간휴게소(부산방향),경부고속도로 황간휴게소(하행),충청북도,연중무휴,00:00,00:00,Y,Y,"DC차데모,AC3상,DC콤보",0,1,N,충청북도 영동군 영동군 황간면 회포길 102 충전소 입구 우측 공터,,한국자동차환경협회,1661-9408,36.2487068,127.8527183,2018-05-01,4440000,충청북도 영동군,
창동역환승주차장 충전소,창동역환승주차장,서울특별시,연중무휴,00:00,00:00,Y,Y,,2,1,Y,서울특별시 도봉구 창4동1-9,서울특별시 도봉구 창4동1-9,도봉구청,,37.6540342,127.048434,2018-05-15,3090000,서울특별시 도봉구,
빅마켓 충전소,방학동 빅마켓,서울특별시,연중무휴,10:00,22:00,N,Y,,,1,N,서울특별시 도봉구 방학동 717-6,서울특별시 도봉구 방학동 717-6,도봉구청,,37.6675664,127.0454944,2018-05-15,3090000,서울특별시 도봉구,
도봉구청 충전소,도봉구청 1층 주차장,서울특별시,연중무휴,00:00,00:00,Y,Y,,,1,Y,서울특별시 도봉구 마들로 656,,도봉구청,,37.6686287,127.0470496,2018-05-15,3090000,서울특별시 도봉구,
도봉구민회관 충전소,도봉구민회관 1층 주차장,서울특별시,연중무휴,00:00,00:00,Y,Y,,,1,Y,서울특별시 도봉구 도봉로 552,,도봉구청,,37.6540005,127.0386044,2018-05-15,3090000,서울특별시 도봉구,
창1동공영주차장 충전소,창1동공영주차장,서울특별시,연중무휴,09:00,18:00,Y,N,,1,,Y,서울특별시 도봉구 창동 657-37,서울특별시 도봉구 창동 657-37,도봉구청,,37.6470878,127.0371648,2018-05-15,3090000,서울특별시 도봉구,
영암군청,영암군청 별관 옆 주차장,전라남도,없음,00:00,12:00,Y,Y,트리플형,1,1,N,전라남도 영암군 영암읍 군청로 1,전라남도 영암군 영암읍 동무리 158,한국자동차환경협회,1661-9408,34.8005311,126.6970612,2018-07-30,4940000,전라남도 영암군,
시종면사무소,시종면사무소 주차장,전라남도,없음,00:00,12:00,N,Y,트리플형,0,1,N,전라남도 영암군 시종면 내동중앙로 41,전라남도 영암군 시종면 내동리 4,한국자동차환경협회,1661-9408,34.8687243,126.6072102,2018-07-30,4940000,전라남도 영암군,
전주시청,지하주차장,전라북도,공휴일,09:00,18:00,Y,N,,3,0,Y,"전라북도 전주시 완산구 노송광장로 10, 전주시청",전라북도 전주시 완산구 서노송동 568-1 전주시청,전라북도 전주시청,063-281-2324,35.8241932,127.1480005,2018-08-20,4640000,전라북도 전주시,
완산구청,지하1층주차장,전라북도,공휴일,09:00,18:00,Y,N,,3,0,N,"전라북도 전주시 완산구 서원로 232, 완산구청",전라북도 전주시 완산구 효자동1가 595 완산구청,전라북도 전주시 완산구청,063-220-5276,35.8121839,127.1197599,2018-08-20,4640000,전라북도 전주시,
덕진구청,지하1층주차장,전라북도,공휴일,09:00,18:00,Y,N,,3,0,N,"전라북도 전주시 덕진구 벚꽃로 55, 덕진구청",전라북도 전주시 덕진구 진북동 416-12 덕진구청,전라북도 전주시 덕진구청,063-270-6273,35.8293678,127.1343146,2018-08-20,4640000,전라북도 전주시,
전통문화전당,한국전통문화전당 지하주차장,전라북도,공휴일,09:00,18:00,Y,N,,2,0,N,전라북도 전주시 완산구 현무1길 20 한국전통문화전당,전라북도 전주시 완산구 경원동3가 14-2 한국전통문화전당,전라북도 전주시청,063-281-1561,35.8206761,127.1395273,2018-08-20,4640000,전라북도 전주시,
수질복원센터 앞 공원주차장,주차장,전라북도,공휴일,09:00,18:00,N,Y,DC차데모+AC3상+DC콤보,,1,N,전라북도 전주시 덕진구 중동로 150,,전라북도 전주시청,063-281-2324,35.832940,127.062113,2018-08-20,4640000,전라북도 전주시,
차량등록사업소,주차장,전라북도,공휴일,09:00,18:00,N,Y,DC차데모+AC3상+DC콤보,,1,N,전라북도 전주시 덕진구 완주로 6,,전라북도 전주시청,063-281-2324,35.867420,127.147559,2018-08-20,4640000,전라북도 전주시,
삼천도서관,주차장,전라북도,공휴일,09:00,18:00,N,Y,DC차데모+AC3상+DC콤보,,1,N,전라북도 전주시 완산구 용리로 107,,전라북도 전주시청,063-281-2324,35.798910,127.121697,2018-08-20,4640000,전라북도 전주시,
고석정 충전소,외부 주차장,강원도,연중무휴,00:00,24:00,N,Y,급속,0,1,Y,강원도 철원군 동송읍 태봉로 1825 주차장 일원,강원도 철원군 동송읍 장흥리 20-1,환경관리공단,031-723-4149,38.1868118,127.2878868,2018-08-20,4300000,강원도 철원군,
철원군 동송읍사무소,외부 주차장,강원도,연중무휴,00:00,24:00,Y,N,완속,1,0,N,강원도 철원군 동송읍 이평로 133,강원도 철원군 동송읍 이평리 860-1,환경관리공단,031-723-4149,38.207525,127.208702,2018-08-20,4300000,강원도 철원군,
철원군 김화읍사무소,외부 주차장,강원도,연중무휴,00:00,24:00,Y,N,완속,1,0,N,강원도 철원군 김화읍 호국로 6510,강원도 철원군 김화읍 학사리 261-1,환경관리공단,031-723-4149,38.249461,127.421176,2018-08-20,4300000,강원도 철원군,
철원군 서면사무소,외부 주차장,강원도,연중무휴,00:00,24:00,Y,N,완속,1,0,N,강원도 철원군 서면 신술2길 40,강원도 철원군 서면 자등리 754,환경관리공단,031-723-4149,38.165043,127.415628,2018-08-20,4300000,강원도 철원군,
철원군 철원읍사무소,외부 주차장,강원도,연중무휴,00:00,24:00,Y,N,완속,1,0,N,강원도 철원군 철원읍 금학로279번길 15-1,강원도 철원군 철원읍 화지리 38-1,환경관리공단,031-723-4149,38.165353,127.415578,2018-08-20,4300000,강원도 철원군,
철원군 근남면사무소,외부 주차장,강원도,연중무휴,00:00,24:00,Y,N,완속,1,0,N,강원도 철원군 근남면 하오재로 2050,강원도 철원군 근남면 육단리 302-6,환경관리공단,031-723-4149,38.237307,127.470970,2018-08-20,4300000,강원도 철원군,
철원군청 주차장,외부 주차장,강원도,연중무휴,00:00,24:00,Y,Y,급속,0,2,N,강원도 철원군 갈말읍 삼부연로 51,강원도 철원군 갈말읍 신철원리 649,환경관리공단,031-723-4149,38.237733,127.470838,2018-08-20,4300000,강원도 철원군,
동송읍 공영주차장,외부 주차장,강원도,연중무휴,00:00,24:00,Y,Y,급속,0,2,N,강원도 철원군 동송읍 금학로 201번길 20,강원도 철원군 동송읍 이평리 840-62,환경관리공단,031-723-4149,38.206925,127.217675,2018-08-20,4300000,강원도 철원군,
서면 공영주차장,외부 주차장,강원도,연중무휴,00:00,24:00,Y,Y,급속,0,2,N,강원도 철원군 서명 와수로166번길5,강원도 철원군 서면 와수리 1158-1,환경관리공단,031-723-4149,38.238952,127.439177,2018-08-20,4300000,강원도 철원군,
홈플러스 구월점,"인천광역시 남동구 예술로 198 , 지하주차장 4층 I4구역(구월동 1130)",인천광역시,-,09:00,23:59,N,Y,DC차데모+AC3상,0,1,Y,"인천광역시 남동구 예술로 198 , 지하주차장 4층 I4구역(구월동 1130)",인천광역시 남동구 구월동 1130,환경부(한국자동차환경협회),1661-9408,37.4516923,126.7019408,2019-06-27,3530000,인천광역시 남동구,
중부지방고용노동청 별관 앞,인천광역시 남동구 구월3동 1111-6  중부지방고용노동청 별관 앞,인천광역시,-,00:00,23:59,N,Y,DC차데모+AC3상+DC콤보,0,1,Y,"인천광역시 남동구 문화로 135,  중부지방고용노동청 별관 앞",인천광역시 남동구 구월동 1111-6,환경부(한국자동차환경협회),1661-9408,37.4510928,126.6995303,2019-06-27,3530000,인천광역시 남동구,
인천시청,"인천광역시 남동구 정각로 29 , 정문 우측 경비실 앞(구월동 1138)",인천광역시,-,00:00,23:59,N,Y,DC차데모+AC3상+DC콤보,0,1,Y,"인천광역시 남동구 정각로 29 , 정문 우측 경비실 앞(구월동 1138)",인천광역시 남동구 구월동 1138,환경부(한국자동차환경협회),1661-9408,37.4562553577,126.7047010106,2019-06-27,3530000,인천광역시 남동구,
인천교통공사 본사,인천광역시 남동구 경인로 674,인천광역시,-,00:00,23:59,N,Y,DC차데모+AC3상+DC콤보,0,1,N,인천광역시 남동구 경인로 674,인천광역시 남동구 간석동 67-2,환경부(한국자동차환경협회),1661-9408,37.4700297,126.7089006,2019-06-27,3530000,인천광역시 남동구,
인천아시안게임 남동경기장 1주차장,인천광역시 남동구 수산동 394-54,인천광역시,-,00:00,23:59,N,Y,DC콤보,0,2,N,인천광역시 남동구 수산동 394-54,인천광역시 남동구 수산동 394-54,환경부(한국자동차환경협회),1661-9408,37.4392317,126.731229,2019-06-27,3530000,인천광역시 남동구,
소래제1주차장,인천광역시 남동구 논현동 754-4,인천광역시,-,00:00,23:59,N,Y,DC콤보,0,2,N,인천광역시 남동구 논현동 754-4,인천광역시 남동구 논현동 754-4,환경부(한국자동차환경협회),1661-9408,37.411903,126.730045,2019-06-27,3530000,인천광역시 남동구,
늘솔길공원 3주차장,인천광역시 남동구 논현동 762-3,인천광역시,-,00:00,23:59,N,Y,DC콤보,0,2,N,인천광역시 남동구 논현동 762-3,인천광역시 남동구 논현동 762-3,환경부(한국자동차환경협회),1661-9408,37.4048253,126.7026384,2019-06-27,3530000,인천광역시 남동구,
남동복지관,인천광역시 남동구 소래로 645,인천광역시,-,00:00,23:59,N,Y,DC콤보,0,2,N,인천광역시 남동구 소래로 645,인천광역시 남동구 만수동 984-6,환경부(한국자동차환경협회),1661-9408,37.4476235,126.7330404,2019-06-27,3530000,인천광역시 남동구,
장수서창 공영주차장,인천광역시 남동구 서창동 558-3,인천광역시,-,00:00,23:59,N,Y,DC콤보,0,2,N,인천광역시 남동구 서창동 558-3,인천광역시 남동구 서창동 558-3,환경부(한국자동차환경협회),1661-9408,37.4357347,126.7452621,2019-06-27,3530000,인천광역시 남동구,
LH인천본부,인천광역시 남동구 논현로46번길 23,인천광역시,-,09:00,18:00,N,Y,DC차데모+AC3상+DC콤보,0,2,Y,인천광역시 남동구 논현로46번길 23,인천광역시 남동구 논현동 639-1,한국전력,1899-2100,37.4075592,126.7055286,2019-06-27,3530000,인천광역시 남동구,
인천광역시 LGBESTSHOP(남동구청점),인천광역시 남동구 소래로 668 주차장,인천광역시,-,00:00,23:59,Y,N,-,1,,N,인천광역시 남동구 소래로 668 주차장,인천광역시 남동구 만수동 1072,포스코ICT,1600-4047,37.4489982,126.7345745,2019-06-27,3530000,인천광역시 남동구,
인천대공원사업소,인천광역시 남동구 무네미로 236,인천광역시,-,00:00,23:59,Y,N,-,2,0,N,인천광역시 남동구 무네미로 236,인천광역시 남동구 장수동 산164,한국전기차충전서비스,1522-1782,37.4576940,126.7494785,2019-06-27,3530000,인천광역시 남동구,
인천대공원사업소 정문,"인천광역시 남동구 무네미로 238 (장수동, 인천대공원)",인천광역시,-,10:00,18:00,Y,N,-,1,0,N,"인천광역시 남동구 무네미로 238 (장수동, 인천대공원)",인천광역시 남동구 장수동 산78,한국전기차충전서비스,1522-1782,37.4581551,126.7510781,2019-06-27,3530000,인천광역시 남동구,
인천광역시 한전KDN 인천지사,인천광역시 남동구 인주대로 885  주차장,인천광역시,-,00:00,23:59,Y,N,-,1,0,Y,인천광역시 남동구 인주대로 885  주차장,인천광역시 남동구 만수동 1072-5,포스코ICT,1600-4047,37.4485694,126.7356019,2019-06-27,3530000,인천광역시 남동구,
인천서부 시승센터(고객만 이용가능),인천광역시 남동구 인주대로 629,인천광역시,-,10:00,18:00,Y,N,-,1,0,N,인천광역시 남동구 인주대로 629,인천광역시 남동구 구월동 1145-7,현대자동차,032-425-7365,37.4501376551,126.7069356171,2019-06-27,3530000,인천광역시 남동구,
LH인천지역본부,인천광역시 남동구 논현로 46번길 23 지하 2층 주차장 중간 부근(논현동 639-1 지하 2층 주차장 중간 부근),인천광역시,-,00:00,23:59,Y,N,-,2,0,Y,인천광역시 남동구 논현로 46번길 23 지하 2층 주차장 중간 부근(논현동 639-1 지하 2층 주차장 중간 부근),인천광역시 남동구 논현동 639-1,지엔텔,1544-4279,37.4075592,126.7055286,2019-06-27,3530000,인천광역시 남동구,
인천광역시청,인천광역시 남동구 정각로 29 지상주차장(구월동 1138),인천광역시,-,00:00,23:59,Y,N,-,3,0,N,인천광역시 남동구 정각로 29 지상주차장(구월동),인천광역시 남동구 구월동 1138,지엔텔,1544-4279,37.4562553577,126.7047010106,2019-06-27,3530000,인천광역시 남동구,
형제전기,인천광역시 남동구 남동대로 150 (고잔동),인천광역시,-,00:00,23:59,Y,N,-,2,0,Y,인천광역시 남동구 남동대로 150 (고잔동),인천광역시 남동구 고잔동 672,케이티,1522-4700,37.3989201882,126.6940525349,2019-06-27,3530000,인천광역시 남동구,
소래포구종합어시장,"인천광역시 남동구 소래역로 12 (논현동, 소래포구종합어시장)",인천광역시,-,00:00,23:59,Y,N,-,1,0,Y,"인천광역시 남동구 소래역로 12 (논현동, 소래포구종합어시장)",인천광역시 남동구 논현동 680-1,케이티,1522-4700,37.3987355807,126.7371771166,2019-06-27,3530000,인천광역시 남동구,
삼천리기계,인천광역시 남동구 남동대로 99 (고잔동),인천광역시,-,00:00,23:59,Y,N,-,1,0,Y,인천광역시 남동구 남동대로 99 (고잔동),인천광역시 남동구 고잔동 693-2,케이티,1522-4700,37.3957035,126.6903860,2019-06-27,3530000,인천광역시 남동구,
인천논현푸르지오(입주민),인천광역시 남동구 청능대로 596 (논현동),인천광역시,-,00:00,23:59,Y,N,-,5,0,Y,인천광역시 남동구 청능대로 596 (논현동),인천광역시 남동구 논현동 650-1,케이티,1522-4700,37.4004201,126.7255610,2019-06-27,3530000,인천광역시 남동구,
구월4동주민센터,인천광역시 남동구 구월말로 7 구월4동주민센터,인천광역시,-,09:00,18:00,Y,N,-,1,0,N,인천광역시 남동구 구월말로 7 구월4동주민센터,인천광역시 남동구 구월동 1296-6,에버온,1661-7766,37.4495932,126.7240559,2019-06-27,3530000,인천광역시 남동구,
구월3동주민센터,인천광역시 남동구 문화서로 84 구월3동주민센터,인천광역시,-,09:00,18:00,Y,N,-,1,0,N,인천광역시 남동구 문화서로 84 구월3동주민센터,인천광역시 남동구 구월동 1098-7,에버온,1661-7766,37.4526543,126.6969208,2019-06-27,3530000,인천광역시 남동구,
구월2동주민센터,인천광역시 남동구 구월로 208 구월2동주민센터,인천광역시,-,09:00,18:00,Y,N,-,1,0,N,인천광역시 남동구 구월로 208 구월2동주민센터,인천광역시 남동구 구월동 23-1,에버온,1661-7766,37.4560591,126.7133431,2019-06-27,3530000,인천광역시 남동구,
간석3동주민센터,인천광역시 남동구 용천로 186 간석3동주민센터,인천광역시,-,09:00,18:00,Y,N,-,1,0,N,인천광역시 남동구 용천로 186 간석3동주민센터,인천광역시 남동구 간석동 49-1,에버온,1661-7766,37.4660789,126.7146172,2019-06-27,3530000,인천광역시 남동구,
장수서창동주민센터,인천광역시 남동구 독곡로 28(서창동) 장수서창동주민센터,인천광역시,-,09:00,18:00,Y,N,-,1,0,N,인천광역시 남동구 독곡로 28(서창동) 장수서창동주민센터,인천광역시 남동구 서창동 558-2,에버온,1661-7766,37.4357305,126.7474508,2019-06-27,3530000,인천광역시 남동구,
만수6동주민센터,인천광역시 남동구 장승남로 47(만수동) 만수6동주민센터,인천광역시,-,09:00,18:00,Y,N,-,1,0,N,인천광역시 남동구 장승남로 47(만수동) 만수6동주민센터,인천광역시 남동구 만수동 1020,에버온,1661-7766,37.4437265,126.7376429,2019-06-27,3530000,인천광역시 남동구,
만수5동주민센터,인천광역시 남동구 만경로28번길 3(만수동) 만수5동주민센터,인천광역시,-,09:00,18:00,Y,N,-,1,0,N,인천광역시 남동구 만경로28번길 3(만수동) 만수5동주민센터,인천광역시 남동구 만수동 876,에버온,1661-7766,37.4577629,126.7277420,2019-06-27,3530000,인천광역시 남동구,
만수4동주민센터,인천광역시 남동구 만수로50번길 39(만수동) 만수4동주민센터,인천광역시,-,09:00,18:00,Y,N,-,1,0,N,인천광역시 남동구 만수로50번길 39(만수동) 만수4동주민센터,인천광역시 남동구 만수동 21,에버온,1661-7766,37.4594550,126.7356288,2019-06-27,3530000,인천광역시 남동구,
만수3동주민센터,인천광역시 남동구 서판로 11(만수동) 만수3동주민센터,인천광역시,-,09:00,18:00,Y,N,-,1,0,N,인천광역시 남동구 서판로 11(만수동) 만수3동주민센터,인천광역시 남동구 만수동 847-1,에버온,1661-7766,37.4619204,126.7229941,2019-06-27,3530000,인천광역시 남동구,
만수2동주민센터,인천광역시 남동구 만수서로 46(만수동) 만수2동주민센터,인천광역시,-,09:00,18:00,Y,N,-,1,0,N,인천광역시 남동구 만수서로 46(만수동) 만수2동주민센터,인천광역시 남동구 만수동 1116-2,에버온,1661-7766,37.4603490,126.7327742,2019-06-27,3530000,인천광역시 남동구,
만수1동주민센터,인천광역시 남동구 인주대로 851(만수동) 만수1동주민센터,인천광역시,-,09:00,18:00,Y,N,-,1,0,N,인천광역시 남동구 인주대로 851(만수동) 만수1동주민센터,인천광역시 남동구 만수동 983-5,에버온,1661-7766,37.4486799,126.7319587,2019-06-27,3530000,인천광역시 남동구,
논현고잔동주민센터,인천광역시 남동구 앵고개로847번길 32(논현동) 논현고잔동주민센터,인천광역시,-,09:00,18:00,Y,N,-,1,0,N,인천광역시 남동구 앵고개로847번길 32(논현동) 논현고잔동주민센터,인천광역시 남동구 논현동 744-4,에버온,1661-7766,37.3977668402,126.7263883829,2019-06-27,3530000,인천광역시 남동구,
논현2동주민센터,인천광역시 남동구 논현고잔로 248 (논현동) 논현2동주민센터,인천광역시,-,09:00,18:00,Y,N,-,1,0,N,인천광역시 남동구 논현고잔로 248 (논현동) 논현2동주민센터,인천광역시 남동구 논현동 633-3,에버온,1661-7766,37.4041827,126.7163847,2019-06-27,3530000,인천광역시 남동구,
논현1동주민센터,인천광역시 남동구 소래역로 115(논현동) 논현1동주민센터,인천광역시,-,09:00,18:00,Y,N,-,1,0,N,인천광역시 남동구 소래역로 115(논현동) 논현1동주민센터,인천광역시 남동구 논현동 603-5,에버온,1661-7766,37.4056486,126.7293105,2019-06-27,3530000,인천광역시 남동구,
간석1동주민센터,인천광역시 남동구 구월로137번길 39 (간석동) 간석1동주민센터,인천광역시,-,09:00,18:00,Y,N,-,1,0,N,인천광역시 남동구 구월로137번길 39 (간석동) 간석1동주민센터,인천광역시 남동구 간석동 353-4,에버온,1661-7766,37.4585704,126.7052772,2019-06-27,3530000,인천광역시 남동구,
한국전기안전공사 인천지역본부(직원),인천광역시 남동구 성말로 13번길 36-9 한국전기안전공사 인천지역본부,인천광역시,-,10:00,18:00,Y,N,-,2,0,Y,인천광역시 남동구 성말로13번길 36-9 한국전기안전공사 인천지역본부,인천광역시 남동구 구월동 1452-1,대영채비,1522-2573,37.4471773,126.7028461,2019-06-27,3530000,인천광역시 남동구,
목포관광안내소,전라남도 목포시 영산로 843 목포관광안내소 옆(무안에서 목포로진입해서 오른쪽 목포관광안내소옆),전라남도,연중무휴,00:00,00:00,N,Y,,0,1,N,전라남도 목포시 영산로 843,,한국자동차환경협회,,34.838268,126.422267,2019-06-28,4800000,전라남도 목포시,
목포시청 민원주차장,전라남도 목포시청 의회 뒷편주차장,전라남도,연중무휴,00:00,00:00,N,Y,,1,1,N,전라남도 목포시 양을로 203,,한국자동차환경협회,,34.811622,126.391975,2019-06-28,4800000,전라남도 목포시,
한국전력,전라남도 목포시 한국전력공사목포지점내,전라남도,연중무휴,00:00,00:00,N,Y,,0,1,N,전라남도 목포시 삼학로370,,한국전력,,34.803661,126.409495,2019-06-28,4800000,전라남도 목포시,
목포시 LGBESTSHOP(목포상동점),전라남도 목포시 상동LG전자주차장내,전라남도,연중무휴,00:00,00:00,Y,N,,1,0,N,전라남도 목포시 백년대로282,,포스코ICT,,34.802708,126.419142,2019-06-28,4800000,전라남도 목포시,
북항광장 공영주차장,전라남도 목포시 죽교천로 131,전라남도,연중무휴,00:00,00:00,N,Y,,0,1,N,전라남도 목포시 죽교천로 131,,한국전력,,34.80293052,126.3684417,2019-06-28,4800000,전라남도 목포시,
자동차등록사무소,전라남도 목포시 연산로 197(연산동),전라남도,연중무휴,00:00,00:00,N,Y,,0,1,N,전라남도 목포시 연산로 197,,한국전력,,34.81306209,126.3765482,2019-06-28,4800000,전라남도 목포시,
원형2공영주차장,전라남도 목포시 상동 1130(롯데시네마 옆),전라남도,연중무휴,00:00,00:00,N,Y,,0,1,N,전라남도 목포시 원형로 42,,한국전력,,34.79921837,126.4323845,2019-06-28,4800000,전라남도 목포시,
원형1공영주차장,전라남도 목포시 원형로 8,전라남도,연중무휴,00:00,00:00,N,Y,,0,1,N,전라남도 목포시 원형로 8,,한국전력,,34.7981905,126.4302622,2019-06-28,4800000,전라남도 목포시,
신흥동 주민센터,전라남도 목포시 하당로 66(상동),전라남도,연중무휴,00:00,00:00,N,Y,,0,1,N,전라남도 목포시 하당로 66,,한국전력,,34.79884473,126.4188199,2019-06-28,4800000,전라남도 목포시,
부주동 행정복지센터,전라남도 목포시 남악1로 51번가길 2(옥암동),전라남도,연중무휴,00:00,00:00,N,Y,,0,1,N,전라남도 목포시 남악1로 51번가길 2,,한국전력,,34.79078762,126.3852447,2019-06-28,4800000,전라남도 목포시,
동부시장공영주차장,전라남도 목포시 영산로 257번길 15(동부시장 옆),전라남도,연중무휴,00:00,00:00,N,Y,,0,1,N,전라남도 목포시 영산로 257번길 15,,한국전력,,34.80454186,126.3934169,2019-06-28,4800000,전라남도 목포시,
목포유통센터,전라남도 목포시 선곡로 33,전라남도,연중무휴,00:00,00:00,N,Y,,0,2,N,전라남도 목포시 선곡로 33,,한국전력,,34.8189194,126.4292503,2019-06-28,4800000,전라남도 목포시,
충청북도 제천시 한국전력제천지사,외부 주차장,충청북도,연중무휴,00:00,23:59,Y,N,,1,,N,충청북도 제천시 풍양로 57(의림동),충청북도 제천시 의림동 117 한국전력제천지점,,,37.1393002562,128.206638,2019-06-19,4400000,충청북도 제천시,
충청북도 제천시 청풍면사무소,외부 주차장,충청북도,연중무휴,00:00,23:59,Y,N,,1,,N,충청북도 제천시 청풍면 청풍호로 2115,충청북도 제천시 청풍면 물태리 133 청풍면사무소,,,37.000946245,128.168571267,2019-06-19,4400000,충청북도 제천시,
충청북도 제천시 관광정보센터,외부 주차장,충청북도,연중무휴,00:00,23:59,Y,N,,1,,N,충청북도 제천시 청풍면 청풍호로50길 6,충청북도 제천시 청풍면 교리 147,,,37.012231,128.179197,2019-06-19,4400000,충청북도 제천시,
충청북도 제천시 수산면사무소,외부 주차장,충청북도,연중무휴,00:00,23:59,Y,N,,1,,N,충청북도 제천시 수산면 월악로26길 39 수산면사무소,충청북도 제천시 수산면 수산리 601-7,,,36.933773,128.180973,2019-06-19,4400000,충청북도 제천시,
충청북도 제천시 수산복지회관,외부 주차장,충청북도,연중무휴,00:00,23:59,Y,N,,1,,N,충청북도 제천시 수산면 지곡로 1,충청북도 제천시 수산면 수산리 609-9,,,36.934616,128.185277,2019-06-19,4400000,충청북도 제천시,
충청북도 제천시 금성면사무소,외부 주차장,충청북도,연중무휴,00:00,23:59,Y,N,,1,,N,충청북도 제천시 금성면 청풍호로 1045 금성면사무소,충청북도 제천시 금성면 구룡리 66-11,,,37.0618247153,128.168411661,2019-06-19,4400000,충청북도 제천시,
충청북도 제천시 덕산면사무소,외부 주차장,충청북도,연중무휴,00:00,23:59,Y,N,,1,,N,충청북도 제천시 덕산면 약초로 59,충청북도 제천시 덕산면 도전리 800-1,,043-641-4202,36.912033,128.164399213,2019-06-19,4400000,충청북도 제천시,
충청북도 제천시 신백동주민센터,외부 주차장,충청북도,연중무휴,00:00,23:59,Y,N,,1,,N,충청북도 제천시 의병대로34길 50 신백동주민센터,충청북도 제천시 신백동 306-1,,,37.1283791738,128.223249332,2019-06-19,4400000,충청북도 제천시,
충청북도 제천시 봉양읍행정복지센터,외부 주차장,충청북도,연중무휴,00:00,23:59,Y,N,,1,,N,충청북도 제천시 봉양읍 주포로 83 봉양읍사무소,충청북도 제천시 봉양읍 주포리 164-2,,043-641-4023,37.1328484548,128.121547,2019-06-19,4400000,충청북도 제천시,
충청북도 제천시 한수면사무소,외부 주차장,충청북도,연중무휴,00:00,23:59,Y,N,,1,,N,충청북도 제천시 한수면 미륵송계로8길 26,충청북도 제천시 한수면 송계리 282 한수면사무소,,,36.8854978645,128.081865,2019-06-19,4400000,충청북도 제천시,
충청북도 제천시 백운면사무소,외부 주차장,충청북도,연중무휴,00:00,23:59,Y,N,,1,,N,충청북도 제천시 백운면 애련로 13,충청북도 제천시 백운면 평동리 209-2 백운면사무소,,043-641-4282,37.1377703595,128.025817,2019-06-19,4400000,충청북도 제천시,
충청북도 제천시 건설민원동 주차장,외부 주차장,충청북도,연중무휴,00:00,23:59,N,Y,AC3상+DC차 데모,,1,N,충청북도 제천시 내토로 295(천남동),충청북도 제천시 천남동 12-2 제천시청,,043-641-5723,37.13301301,128.191499226,2019-06-19,4400000,충청북도 제천시,
충청북도 제천시 송학면사무소,외부 주차장,충청북도,연중무휴,00:00,23:59,Y,N,,1,,N,충청북도 제천시 송학면 시곡포전로1길 14-2,충청북도 제천시 송학면 시곡리 1157 송학면사무소,,043-641-4323,37.1849384028,128.260917246,2019-06-19,4400000,충청북도 제천시,
충청북도 제천시 영서동주민센터,외부 주차장,충청북도,연중무휴,00:00,23:59,Y,N,,1,,N,충청북도 제천시 동명로 11(서부동),충청북도 제천시 서부동 1155 영서동주민센터,,,37.1328100,128.2017851,2019-06-19,4400000,충청북도 제천시,
충청북도 제천시 용두동주민센터,외부 주차장,충청북도,연중무휴,00:00,23:59,Y,N,,1,,N,충청북도 제천시 용두대로17길 8,충청북도 제천시 하소동 323-24,,043-641-4512,37.141852,128.200392,2019-06-19,4400000,충청북도 제천시,
무주읍주민자치센터,전북 무주군 향학로 49번,전라북도,없음,00:00,23:59,N,Y,"DC차데모, AC3상, DC콤보",0,1,N,전라북도 무주군 향학로 49,전라북도 무주군 읍내리 315-1,,1661-9408,36.0087160,127.6620770,2018-08-22,4740000,전라북도 무주군,
안성면주민자치센터,전북 무주군 안성면 안성로 246-17,전라북도,없음,00:00,23:59,N,Y,"DC차데모, AC3상, DC콤보",0,1,N,전라북도 무주군 안성면 안성로 246-17,전라북도 무주군 안성면 장기리 1556,,1661-9409,35.8637210,127.6531570,2018-08-22,4740000,전라북도 무주군,
진안군청,진안군청 후청사 앞,전라북도,무,00:00,24:00,N,Y,AC3+DC,,01,N,전라북도 진안군 진안읍중앙로 67,전라북도 진안군 진안읍 군하리 97-4,환경부,1661-0970,35.791721,127.4245896,2019-06-10,4730000,전라북도 진안군,
진안(익산),진안휴게소(익산방향),전라북도,무,00:00,24:00,N,Y,AC3+DC,,02,N,전라북도 진안군 진안읍 익산장수고속도로 41,전라북도 진안군 진안읍 단양리 171-126,환경부,1661-0970,35.7778121116,127.425259,2019-06-10,4730000,전라북도 진안군,
진안(장수),진안휴게소(장수방향),전라북도,무,00:00,24:00,N,Y,AC3+DC,,02,N,전라북도 진안군 진안읍 익산장수고속도로 42,전라북도 진안군 진안읍 단양리 333-75,환경부,1661-0970,35.7748477623,127.426593595,2019-06-10,4730000,전라북도 진안군,
진안지사,한국전력 진안지사 본관 앞,전라북도,무,00:00,24:00,N,Y,AC3+DC,,01,N,전라북도 진안군 진안읍 대괭이길 7-21 본관앞 주차장,전라북도 진안군 진안읍 군하리 121-2,환경부,1661-0970,35.7907636,127.4216068,2019-06-10,4730000,전라북도 진안군,
마이산관광단지공영주차장,북부마이산 관광단지 공영주차장 내,전라북도,무,00:00,24:00,N,Y,AC3+DC,,01,N,전라북도 진안군 진안읍 마이산로 127,전라북도 진안군 진안읍 단양리 746,환경부,1661-0970,35.775231,127.4186733,2019-06-10,4730000,전라북도 진안군,
진안군청,농업기술센터 주차장 내,전라북도,무,00:00,24:00,Y,N,,01,,N,전라북도 진안군 진안읍 진무로 702-30,전라북도 진안군 진안읍 반월리 1032-1,환경부,1661-0970,35.7628515827,127.437246785,2019-06-10,4730000,전라북도 진안군,
인창문화센터,1층 주차장,경기도,연중무휴,00:00,00:00,N,Y,AC3상+DC차데모+DC콤보,0,1,N,경기도 구리시 동구릉로53번길 34(인창동),경기도 구리시 인창동 527-37,한국전력,031-560-3237,37.606411,127.133104,2019-04-23,3980000,경기도 구리시,
롯데아울렛 구리점,지하3층 주차장,경기도,연중무휴,00:00,00:00,Y,N,,2,0,N,경기도 구리시 동구릉로136번길 47(인창동),경기도 구리시 인창동 419-7,포스코ICT,031-723-2532,37.611879,127.140489,2019-04-23,3980000,경기도 구리시,
구리시 교문자동차공업사,정비소입구 주차장,경기도,연중무휴,00:00,00:00,Y,N,,1,0,N,경기도 구리시 동구릉로200번길 18(인창동),경기도 구리시 인창동 71,포스코ICT,031-723-2532,37.616438,127.139165,2019-04-23,3980000,경기도 구리시,
한국전력 구리지사,1층 주차장,경기도,연중무휴,06:00,23:00,N,Y,AC3상+DC차데모+DC콤보,0,2,N,경기도 구리시 안골로 31(교문동),경기도 구리시 교문동 733,한국전력,031-560-3237,37.597827,127.134918,2019-04-23,3980000,경기도 구리시,
구리시청,본관 건축과 옆 주차장,경기도,연중무휴,00:00,00:00,N,Y,AC3상+DC차데모+DC콤보,0,1,Y,경기도 구리시 아차산로 439(교문동),경기도 구리시 교문동 390-1,환경부(한국자동차환경협회),1661-9408,37.594872,127.129686,2019-04-23,3980000,경기도 구리시,
갈매중앙공원,물놀이장 근처 주차장,경기도,연중무휴,00:00,00:00,N,Y,AC3상+DC차데모+DC콤보,0,1,N,,경기도 구리시 갈매동 301-5,한국전기차충전서비스,02-562-5578,37.632971,127.118605,2019-04-23,3980000,경기도 구리시,
구리경찰서,본관왼쪽서편주차장,경기도,연중무휴,00:00,00:00,N,Y,AC3상+DC차데모+DC콤보,0,1,N,경기도 구리시 아차산로 359(교문동),경기도 구리시 교문동 462-3,한국전기차충전서비스,02-562-5578,37.587279,127.128911,2019-04-23,3980000,경기도 구리시,
구리농수산물공사도매시장,친환경유기농농산물전문매장 근처 주차장,경기도,연중무휴,00:00,00:00,N,Y,AC3상+DC차데모+DC콤보,0,1,N,경기도 구리시 동구릉로136번길 90(인창동),경기도 구리시 인창동 127,한국전기차충전서비스,02-562-5578,37.613128,127.144644,2019-04-23,3980000,경기도 구리시,
구리시 교문1동 행정복지센터,지상주차장,경기도,연중무휴,00:00,00:00,Y,N,,1,0,N,경기도 구리시 경춘로 111(교문동),경기도 구리시 교문동 262-4,포스코ICT,031-723-2532,37.601174,127.127681,2019-04-23,3980000,경기도 구리시,
구리시 보건소,지하1층 주차장,경기도,연중무휴,00:00,00:00,Y,N,,1,0,N,경기도 구리시 건원대로34번길 84(인창동),경기도 구리시 인창동 674-3,포스코ICT,031-723-2532,37.604625,127.145081,2019-04-23,3980000,경기도 구리시,
구리시 수택1동 행정복지센터,지상주차장,경기도,연중무휴,00:00,00:00,Y,N,,1,0,N,경기도 구리시 검배로93번길 35(수택동),경기도 구리시 수택동 495-8,포스코ICT,031-723-2532,37.596421,127.149148,2019-04-23,3980000,경기도 구리시,
구리시 수택2동 행정복지센터,지상주차장,경기도,연중무휴,00:00,00:00,Y,N,,1,0,N,경기도 구리시 원수택로12번길 16(수택동),경기도 구리시 수택동 445-28,포스코ICT,031-723-2532,37.593192,127.140062,2019-04-23,3980000,경기도 구리시,
구리휴게소(외측방향),소형차 주차장 중앙,경기도,연중무휴,00:00,00:00,N,Y,AC3상+DC차데모+DC콤보,0,1,N,경기도 구리시 서울외곽순환고속도로 32(사노동),경기도 구리시 사노동 170-13,환경부(한국자동차환경협회),031-529-3564,37.627986,127.139536,2019-04-23,3980000,경기도 구리시,
장자마을 동양아파트,지하1층 주차장,경기도,연중무휴,00:00,00:00,Y,N,,3,0,Y,"경기도 구리시 장자대로 66(교문동, 동양아파트)",경기도 구리시 교문동 825,지엔텔,031-555-4504,37.586494,127.137935,2019-04-23,3980000,경기도 구리시,
구리시 동구동 행정복지센터,주차장,경기도,연중무휴,00:00,00:00,Y,N,,1,0,N,경기도 구리시 동구릉로148번길 25,경기도 구리시 인창동 699-1,포스코ICT,031-723-2532,37.611730,127.139300,2019-04-23,3980000,경기도 구리시,
구리갈매푸르지오아파트,단지내,경기도,연중무휴,00:00,00:00,Y,N,,13,0,N,경기도 구리시 갈매중앙로 16,경기도 구리시 갈매동 640,포스코ICT,031-723-2532,37.626340,127.114000,2019-04-23,3980000,경기도 구리시,
구리시 수택3동 행정복지센터,주차장,경기도,연중무휴,00:00,00:00,N,Y,DC콤보,0,2,Y,경기도 구리시 체육관로 74,경기도 구리시 수택동 848,한국전기차충전서비스,02-562-5578,37.591400,127.138500,2019-04-23,3980000,경기도 구리시,
한국지엠구리바로서비스,주차장,경기도,연중무휴,00:00,00:00,Y,N,,1,0,N,경기도 구리시 한다리길 21,경기도 구리시 교문동 640-2,케이티,1522-0123,37.580410,127.127400,2019-04-23,3980000,경기도 구리시,
해남광장,전라남도 해남군 해남읍 해남로 160-60,전라남도,-,00:00,23:59,N,Y,,,1,N,전라남도 해남군 해남읍 해남로 160-60,전라남도 해남군 해남읍 신안리 6,한국자동차환경협회,070-4027-0546,34.5661912,126.622121,2019-06-19,4930000,전라남도 해남군,
우수영관광지,전라남도 해남군 문내면 관광레저로 12,전라남도,-,00:00,23:59,N,Y,,,1,N,전라남도 해남군 문내면 관광레저로 12,전라남도 해남군 문내면 학동리 1021,한국자동차환경협회,070-4027-0546,34.5728862,126.3103284,2019-06-19,4930000,전라남도 해남군,
땅끝해변주차장,전라남도 해남군 송지면 송호리 1051,전라남도,-,00:00,23:59,N,Y,,,1,N,전라남도 해남군 송지면 송호리 1051,전라남도 해남군 송지면 송호리 1051,한국자동차환경협회,070-4027-0546,34.3120031,126.5208404,2019-06-19,4930000,전라남도 해남군,
해남군청 주차장,전라남도 해남군 해남읍 수성리 184-2,전라남도,-,00:00,23:59,N,Y,,,1,N,전라남도 해남군 해남읍 수성리 184-2,전라남도 해남군 해남읍 수성리 184-2,한국자동차환경협회,070-4027-0546,34.574341,126.597913,2019-06-19,4930000,전라남도 해남군,
두륜산도립공원,전라남도 해남군 삼산면 구림리 146-14,전라남도,-,00:00,23:59,N,Y,,,1,N,전라남도 해남군 삼산면 구림리 146-14,전라남도 해남군 삼산면 구림리 146-14,한국자동차환경협회,070-4027-0546,34.497731,126.619697,2019-06-19,4930000,전라남도 해남군,
우항리 공룡화석지,전라남도 해남군 황산면 공룡박물관길 234,전라남도,-,00:00,23:59,N,Y,,,1,N,전라남도 해남군 황산면 공룡박물관길 234,전라남도 해남군 황산면 우항리 191,해남군청,061-530-5640,34.5890888499,126.4428330000,2019-06-19,4930000,전라남도 해남군,
광도면행정복지센터,입구주차장,경상남도,연중무휴,09:00,24:00,Y,N,,1,0,N,경상남도 통영시 광도면 노산길 115,경상남도 통영시 광도면 노산리 391-1,KT,1522-4700,34.899763,128.406887,2019-04-11,5330000,경상남도 통영시,
도천동행정복지센터,센터입구주차장,경상남도,연중무휴,09:00,24:00,Y,N,,1,0,N,경상남도 통영시 평인일주로 36,경상남도 통영시 인평동 148,KT,1522-4700,34.839311,128.400761,2019-04-11,5330000,경상남도 통영시,
봉평동행정복지센터,센터입구주차장,경상남도,연중무휴,09:00,24:00,Y,N,,1,0,N,경상남도 통영시 도남로 185,경상남도 통영시 도남동 399-2,KT,1522-4700,34.829616,128.424366,2019-04-11,5330000,경상남도 통영시,
북신동행정복지센터,센터입구주차장,경상남도,연중무휴,09:00,24:00,Y,N,,1,0,N,경상남도 통영시 여황로 403-6,경상남도 통영시 북신동 698-3,KT,1522-4700,34.857037,128.425589,2019-04-11,5330000,경상남도 통영시,
신세계종합정비,사무실옆주차장,경상남도,연중무휴,09:00,24:00,N,Y,"Dc차데모,DC콤보,AC3상",0,1,N,경상남도 통영시 광도면 죽림2로 14-36,경상남도 통영시 광도면 죽림리 292-33,환경부,1661-9408,34.879223,128.413547,2019-04-11,5330000,경상남도 통영시,
이마트통영점,2층주차장,경상남도,"둘째,넷째 일요일",10:00,23:00,N,Y,"Dc차데모,DC콤보,AC3상",0,1,N,경상남도 통영시 광도면 죽림4로 9,경상남도 통영시 광도면 죽림리 1566-2,한국전력,1899-2100,34.887138,128.418091,2019-04-11,5330000,경상남도 통영시,
케이블카제2주차장,주차타워 입구,경상남도,"둘째,넷째 월요일",09:00,24:00,N,Y,,0,1,N,경상남도 통영시 발개로 205,경상남도 통영시 광도면 도남동 349-1,한국전력,1899-2100,34.826511,128.425469,2019-04-11,5330000,경상남도 통영시,
학섬휴게소,입구주차장,경상남도,연중무휴,09:00,24:00,N,Y,"Dc차데모,DC콤보,AC3상",0,1,N,경상남도 통영시 도산면 남해안도로 1869,경상남도 통영시 도산면 도선리 374-6,환경부,1661-9408,34.917421,128.358494,2019-04-11,5330000,경상남도 통영시,
한전통영지사,입구주차장,경상남도,연중무휴,09:00,24:00,N,Y,"Dc차데모,DC콤보,AC3상",0,1,N,경상남도 통영시 광도면 죽림2로 25-40,경상남도 통영시 광도면 죽림리 1575-2,한국전력,1899-2100,34.882482,128.417041,2019-04-11,5330000,경상남도 통영시,
미수동행정복지센터,센터입구주차장,경상남도,연중무휴,09:00,24:00,Y,N,,1,0,N,경상남도 통영시 미수해안로 51-1,경상남도 통영시 미수동 292-33,KT,1522-4700,34.8304936,128.4052785,2019-04-11,5330000,경상남도 통영시,
롯데마트 통영점,4층주차장,경상남도,"둘째,넷째 일요일",10:00,23:00,N,Y,,0,1,N,경상남도 통영시 무전대로 65,경상남도 통영시 무전동 1069,한전,1661-0970,34.8605747,128.4282639,2019-04-11,5330000,경상남도 통영시,
금호통영마리나리조트,마리나요트클럽앞주차장,경상남도,연중무휴,09:00,24:00,N,Y,,0,1,N,경상남도 통영시 큰발개 1길 33,경상남도 통영시 도남동 645,환경부,1661-0970,34.8276938,128.4400011,2019-04-11,5330000,경상남도 통영시,
통영비즈니스관광호텔,주차장,경상남도,연중무휴,09:00,24:00,Y,N,,2,0,N,경상남도 통영시 통영해안로 575,경상남도 통영시 무전동 55-1,환경부,1661-0970,34.8563072,128.4396077,2019-04-11,5330000,경상남도 통영시,
구파발역환승주차장,지하주차장1층 20구역,서울특별시,연중무휴,00:00,00:00,N,Y,AC3상+DC차데모,0,1,Y,서울특별시 은평구 진관2로 15-40,서울특별시 은평구 진관동 70-1,환경부(한국자동차환경협회),1661-9408,37.6387630000,126.9189440000,2019-03-31,3110000,서울특별시 은평구,
이마트은평점,지하주차장4층 A구역,서울특별시,"매월 둘째, 넷째주 일요일",10:00,00:00,N,Y,AC3상+DC차데모,0,1,Y,서울특별시 은평구 은평로 111,서울특별시 은평구 응암동 90-1,환경부(한국자동차환경협회),1661-9408,37.6003060000,126.9201130000,2019-03-31,3110000,서울특별시 은평구,
은평구민체육센터,주차장 내부,서울특별시,연중무휴,00:00,00:00,N,Y,AC3상+DC차데모+DC콤보,0,1,Y,서울특별시 은평구 진관1로 40,서울특별시 은평구 진관동 362,환경부(한국자동차환경협회),1661-9408,37.6306750000,126.9233060000,2019-03-31,3110000,서울특별시 은평구,
현대자동차수색대리점,주차장 내부,서울특별시,연중무휴,00:00,00:00,N,Y,AC3상+DC차데모+DC콤보,0,1,N,서울특별시 은평구 수색로 342-1,서울특별시 은평구 수색동 315-2,환경부(한국자동차환경협회),1661-9408,37.5866030000,126.8880380000,2019-03-31,3110000,서울특별시 은평구,
한국전력서대문은평지사,주차장 내부,서울특별시,"연중무휴(주중08~20시, 주말09~18시 운영)",08:00,20:00,N,Y,AC3상+DC차데모+DC콤보,0,1,N,서울특별시 은평구 통일로 659,서울특별시 은평구 녹번동 28-62,한국전력,02-350-2264,37.6053690000,126.9336830000,2019-03-31,3110000,서울특별시 은평구,
서울특별시은평병원,주차장 내부,서울특별시,연중무휴,00:00,00:00,N,Y,AC3상+DC차데모+DC콤보,0,1,Y,서울특별시 은평구 백련산로 90,서울특별시 은평구 응암동 232-3,한국전력,02-300-8016,37.5983650000,126.9373500000,2019-03-31,3110000,서울특별시 은평구,
은평평화공원공영주차장,주차장 내부,서울특별시,연중무휴,00:00,00:00,N,Y,AC3상+DC차데모+DC콤보,0,2,Y,서울특별시 은평구 서오릉로 47,서울특별시 은평구 녹번동 153-1,한국전력,02-350-5183,37.6056780000,126.9230440000,2019-03-31,3110000,서울특별시 은평구,
응암3동공영주차장,주차장 내부,서울특별시,연중무휴,00:00,00:00,N,Y,AC3상+DC차데모+DC콤보,0,1,Y,서울특별시 은평구 불광천길 436,서울특별시 은평구 응암동 580-4,한국전력,02-350-2245,37.5934250000,126.9153500000,2019-03-31,3110000,서울특별시 은평구,
롯데슈퍼 은평점,주차장 내부,서울특별시,"매월 둘째, 넷째주 일요일",00:00,00:00,N,Y,AC3상+DC차데모+DC콤보,0,1,Y,서울특별시 은평구 진관2로 117,서울특별시 은평구 진관동 90-1,한국전기차충전서비스,1522-1782,37.6343239400,126.9304657900,2019-03-31,3110000,서울특별시 은평구,
서울시 은평소방서,주차장 내부,서울특별시,연중무휴,00:00,00:00,Y,N,AC완속,1,0,N,서울특별시 은평구 통일로 962,서울특별시 은평구 진관동 120,포스코ICT,1600-4047,37.6285796900,126.9197276400,2019-03-31,3110000,서울특별시 은평구,
서울시 연광초등학교 지하 공동주차장,주차장 내부,서울특별시,연중무휴,00:00,00:00,Y,N,AC완속,1,0,Y,서울특별시 은평구 연서로 347,서울특별시 은평구 불광동 73-1,포스코ICT,1600-4047,37.6261898300,126.9288477300,2019-03-31,3110000,서울특별시 은평구,
서울시 연신중학교 지하 공동주차장,주차장 내부,서울특별시,연중무휴,00:00,00:00,Y,N,AC완속,1,0,Y,서울특별시 은평구 연서로33길 16-32,서울특별시 은평구 불광동 400-4,포스코ICT,1600-4047,37.6230152300,126.9248421200,2019-03-31,3110000,서울특별시 은평구,
현대자동차 블루핸즈 녹번서부점,주차장 내부(현대차 이외 고객 이용 불가),서울특별시,연중무휴,09:00,18:00,Y,N,AC완속,1,0,Y,서울특별시 은평구 통일로 661,서울특별시 은평구 녹번동 28-71,현대자동차,,37.6055691800,126.9338149200,2019-03-31,3110000,서울특별시 은평구,
은평구청,주차장,서울특별시,연중무휴,00:00,00:00,N,Y,AC3상+DC차데모+DC콤보,0,1,N,서울특별시 은평구 은평로 195,서울특별시 은평구 녹번동 84,환경부(한국자동차환경협회),02-351-6155,37.6021755627,126.9293379035,2019-03-31,3110000,서울특별시 은평구,
서북병원,주차장,서울특별시,연중무휴,00:00,00:00,N,Y,AC3상+DC차데모+DC콤보,0,1,N,서울특별시 은평구 갈현로7길 49,서울특별시 은평구 역촌동 산31-1,환경부(한국자동차환경협회),02-3156-3000,37.6046197196,126.9053566093,2019-03-31,3110000,서울특별시 은평구,
서울소방학교,주차장,서울특별시,연중무휴,00:00,00:00,Y,N,AC완속,1,0,Y,서울특별시 은평구 통일로 1031-21,서울특별시 은평구 진관동 110-26,한국전력,02-2106-3612,37.6342164635,126.9144630046,2019-03-31,3110000,서울특별시 은평구,
아이파크포레스트게이트,주차장,서울특별시,연중무휴,00:00,00:00,N,Y,AC완속,4,0,Y,서울특별시 은평구 통일로 1010,서울특별시 은평구 진관동 100-3,한국전력,02-389-7334,37.6328792955,126.9183146017,2019-03-31,3110000,서울특별시 은평구,
정읍시청,시청 후문 주차장,전라북도,연중무휴,00:00,23:59,N,Y,AC3상 7핀+DC차데모 10핀+DC콤보 7핀,,1,N,전라북도 정읍시 충정로 234,전라북도 정읍시 수성동 440-1,환경부(한국자동차환경협회),1661-9408,35.5700179,126.8563768,2019-04-03,4690000,전라북도 정읍시,
칠보면사무소,칠보면 주차장,전라북도,연중무휴,00:00,23:59,N,Y,AC3상 7핀+DC차데모 10핀+DC콤보 7핀,,1,N,전라북도 정읍시 칠보중앙로 68,전라북도 정읍시 칠보면 시산리 587-3,환경부(한국자동차환경협회),1661-9408,35.6027166,126.9933443,2019-04-03,4690000,전라북도 정읍시,
"정읍휴게소(상,하)",정읍휴게소 주차장,전라북도,연중무휴,00:00,23:59,N,Y,AC3상 7핀+DC차데모 10핀+DC콤보 7핀,,2,N,전라북도 정읍시 북면 정신로 135-61,"전라북도 정읍시 북면 남산리 산19-1, 산20-17",환경부(한국자동차환경협회),1661-9408,35.6015047,126.8618299,2019-04-03,4690000,전라북도 정읍시,
한국전력공사(정읍지점),한국전력공사 주차장,전라북도,연중무휴,00:00,23:59,N,Y,AC3상 7핀+DC차데모 10핀+DC콤보 7핀,,1,N,전라북도 정읍시 서부로 5,전라북도 정읍시 연지동 252-26,한국전력공사,1899-2100,35.5691536,126.8436246,2019-04-03,4690000,전라북도 정읍시,
시기공영주차장,시기공영주차장,전라북도,연중무휴,00:00,23:59,N,Y,AC3상 7핀+DC차데모 10핀+DC콤보 7핀,,1,Y,,전라북도 정읍시 시기동 364번지,전라북도 정읍시청,063-539-5702,35.5656596,126.8559501,2019-04-03,4690000,전라북도 정읍시,
수성공영주차장,수성공영주차장,전라북도,연중무휴,00:00,23:59,N,Y,AC3상 7핀+DC차데모 10핀+DC콤보 7핀,,1,Y,,전라북도 정읍시 수성동 524-20번지,전라북도 정읍시청,063-539-5702,35.5696856,126.8506242,2019-04-03,4690000,전라북도 정읍시,
내장산국립공원1주차장,제1주차장,전라북도,연중무휴,00:00,23:59,N,Y,AC3상 7핀+DC차데모 10핀+DC콤보 7핀,,2,Y,,전라북도 정읍시 내장동 52,환경부(한국자동차환경협회),1661-9408,35.4942632,126.9251816,2019-04-03,4690000,전라북도 정읍시,
내장산국립공원 네이처센터,네이처센터 주차장,전라북도,연중무휴,00:00,23:59,N,Y,AC3상 7핀+DC차데모 10핀+DC콤보 7핀,,2,Y,,전라북도 정읍시 내장동 169-1,환경부(한국자동차환경협회),1661-9408,35.5076971,126.9076621,2019-04-03,4690000,전라북도 정읍시,
태인면사무소,태인면 주차장,전라북도,연중무휴,00:00,23:59,N,Y,AC3상 7핀+DC차데모 10핀+DC콤보 7핀,,1,N,전라북도 정읍시 태인면 정읍북로 1193,전라북도 정읍시 태인면 태창리 425,한국전력공사,1899-2100,35.6505634,126.9323335,2019-04-03,4690000,전라북도 정읍시,
롯데마트 정읍점,롯데마트 정읍점,전라북도,연중무휴,00:00,23:59,N,Y,AC3상 7핀+DC차데모 10핀+DC콤보 7핀,,1,N,전라북도 정읍시 벚꽃로 85,전라북도 정읍시 농소동 446-1,한국전기차충전서비스,1522-1782,35.579284,126.839837,2019-04-03,4690000,전라북도 정읍시,
정읍역,정읍역 주차장,전라북도,연중무휴,00:00,23:59,N,Y,AC3상 7핀+DC차데모 10핀+DC콤보 7핀,,2,Y,전라북도 정읍시 서부산업도로 305,전라북도 정읍시 연지동 343-1,한국전력공사,1899-2100,35.5753546,126.8427753,2019-04-03,4690000,전라북도 정읍시,
계룡시청주차장,계룡시청 주차장,충청남도,없음,09:00,18:00,Y,N,N,1,,N,충청남도 계룡시 장안로 46,충청남도 계룡시 금암동 9,효성,02-707-6535,36.2742292,127.2488270,2019-06-05,5580000,충청남도 계룡시,
달성군청,문화복지동 주차장,대구광역시,연중무휴,00:00,23:59,Y,Y,,1,1,N,대구광역시 달성군 논공읍 달성군청로 33,대구광역시 달성군 논공읍 금포리 1313,대구광역시 달성군청,,35.7745414,128.4313244,2019-06-25,3480000,대구광역시 달성군,
달성군청,외부주차장,대구광역시,공휴일,00:00,23:59,Y,N,,1,,N,대구광역시 달성군 논공읍 달성군청로 33,대구광역시 달성군 논공읍 금포리 1313,대구광역시 달성군청,,35.7745414,128.4313244,2019-06-25,3480000,대구광역시 달성군,
함평나비휴게소(광주방향),전라남도 함평군 엄다면 무안광주고속도로 12,전라남도,연중무휴,00:00,00:00,N,Y,"DC차데모, AC3상, DC콤보",,2,N,전라남도 함평군 엄다면 무안광주고속도로 12,전라남도 함평군 엄다면,환경부,1661-9408,35.03773941,126.5124422,2018-08-22,4960000,전라남도 함평군,
함평엑스포공원,전라남도 함평군 함평읍 곤재고 27,전라남도,연중무휴,00:00,00:00,N,Y,"DC차데모, AC3상, DC콤보",,1,N,전라남도 함평군 함평읍 곤재로 27,전라남도 함평군 함평읍,환경부,1661-9408,35.0565469,126.5226337,2018-08-22,4960000,전라남도 함평군,
함평천지휴게소(목포방향),전라남도 함평군 함평읍 서해안고속도로 31,전라남도,연중무휴,00:00,00:00,N,Y,"DC차데모, AC3상, DC콤보",,2,N,전라남도 함평군 함평읍 서해안고속도로 31,전라남도 함평군 함평읍,환경부,1661-9408,35.06913302,126.4780059,2018-08-22,4960000,전라남도 함평군,
함평천지휴게소(시흥방향),전라남도 함평군 함평읍 서해안고속도로 31,전라남도,연중무휴,00:00,00:00,N,Y,"DC차데모, AC3상, DC콤보",,2,N,전라남도 함평군 함평읍 서해안고속도로 31,전라남도 함평군 함평읍,환경부,1661-9408,35.06913302,126.4780059,2018-08-22,4960000,전라남도 함평군,
함평읍사무소,전라남도 함평군 함평읍 중앙길 132,전라남도,연중무휴,00:00,00:00,Y,N,,1,0,N,전라남도 함평군 함평읍 중앙길 132,전라남도 함평군,에버온,1661-7766,35.0653931,126.5202259,2018-08-22,4960000,전라남도 함평군,
함평지사,전라남도 함평군 함평읍 서부길 41-14,전라남도,연중무휴,06:00,23:00,N,Y,"DC차데모, AC3상, DC콤보",,1,N,전라남도 함평군 함평읍 서부길 41-14,전라남도 함평군 함평읍,한국전력,061-320-0239,35.0601615,126.5182901,2018-08-22,4960000,전라남도 함평군,
국민체육센터 공공급속충전소,충청북도 괴산군 괴산읍 서부리654,충청북도,-,00:00,23:59,N,Y,-,0,1,N,충청북도 괴산군 괴산읍 임꺽정로113,,한국환경공단,032-590-3678,36.8146933011,127.783476018,2019-06-21,4460000,충청북도 괴산군,
푸른내문화센터 공공급속충전소,충청북도 괴산군 청천면 금관로473,충청북도,-,00:00,23:59,N,Y,-,0,1,N,충청북도 괴산군 청천면 금관로473,,한국환경공단,032-590-3678,36.6585652,127.7388582,2019-06-21,4460000,충청북도 괴산군,
칠성면사무소 공공급속충전소,충청북도 괴산군 칠성면 도정로 61,충청북도,-,00:00,23:59,N,Y,-,0,1,N,충청북도 괴산군 칠성면 도정로 61,,한국전력공사,,36.7879437,127.8638452,2019-06-21,4460000,충청북도 괴산군,
괴산휴게소 공공급속충전소,충청북도 괴산군 장연면 중부내륙고속도로 205(마산방향),충청북도,-,00:00,23:59,N,Y,-,0,1,N,충청북도 괴산군 장연면 중부내륙고속도로 205(마산방향),,환경부,1661-9408,36.8313365,127.957811,2019-06-21,4460000,충청북도 괴산군,
괴산휴게소 공공급속충전소,충청북도 괴산군 장연면 중부내륙고속도로 204(양평방향),충청북도,-,00:00,23:59,N,Y,-,0,1,N,충청북도 괴산군 장연면 중부내륙고속도로 204(양평방향),,환경부,1661-9408,36.8317809,127.960157,2019-06-21,4460000,충청북도 괴산군,
연풍면사무소 공공급속충전소,충청북도 괴산군 연풍면 향교로 71,충청북도,-,00:00,23:59,N,Y,-,0,1,N,충청북도 괴산군 연풍면 향교로 71,,자동차환경협회,02-3473-1221,36.7665985064,128.0009509025,2019-06-21,4460000,충청북도 괴산군,
장연면사무소 공공급속충전소,충청북도 괴산군 장연면 미선로 오가 5길7,충청북도,-,00:00,23:59,N,Y,-,0,1,N,충청북도 괴산군 장연면 미선로 오가 5길7,,자동차환경협회,02-3473-1221,36.824133,127.955418,2019-06-21,4460000,충청북도 괴산군,
청안면사무소 공공급속충전소,충청북도 괴산군 청안면 청안읍내로 2길 7,충청북도,-,00:00,23:59,N,Y,-,0,1,N,충청북도 괴산군 청안면 청안읍내로 2길 7,,자동차환경협회,02-3473-1221,36.7719849,127.6398188,2019-06-21,4460000,충청북도 괴산군,
불정면사무소 공공급속충전소,충청북도 괴산군 불정면 목도로 2길 11,충청북도,-,00:00,23:59,N,Y,-,0,1,N,충청북도 괴산군 불정면 목도로 2길 11,,자동차환경협회,02-3473-1221,36.8711806631,127.854058215,2019-06-21,4460000,충청북도 괴산군,
망미동 공영주차장,망미동 979-73,부산광역시,연중무휴,00:00,00:00,N,Y,"DC차데모, AC3상, DC콤보",0,1,Y,부산광역시 수영구 금련로 43번길 17,부산광역시 수영구 망미동 979-73,환경부(한국자동차환경협회),02-3473-1221,35.1703149613,129.096868,2019-01-24,3380000,부산광역시 수영구,
민락동 매립지 공영주차장,민락동113-46,부산광역시,연중무휴,00:00,00:00,N,Y,"DC차데모, AC4상, DC콤보",0,1,Y,부산광역시 수영구 민락수변로 17번길 60,부산광역시 수영구 민락동 113-46,한국전력,02-1899-2100,35.154880687,129.127174614,2019-01-24,3380000,부산광역시 수영구,
수변공원,민락수변로 95,부산광역시,연중무휴,00:00,00:00,N,Y,"DC차데모, AC5상, DC콤보",0,1,Y,부산광역시 수영구 민락수변로 95,부산광역시 수영구 민락동 110-27,환경부(한국자동차환경협회),02-1661-9408,35.1547365375,129.131068274,2019-01-24,3380000,부산광역시 수영구,
포항시청 ①,내부주차장,경상북도,연중무휴,23:59,23:59,N,Y,DC차 데모 +AC3상,0,1,Y,경상북도 포항시 남구 시청로1 포항시청,경상북도 포항시 남구 대잠동 1001,한국자동차환경협회,1661-9408,36.0187152796,129.343852775,2019-06-12,5020000,경상북도 포항시,
포항시청 ②,내부주차장,경상북도,연중무휴,23:59,23:59,N,Y,DC차데모+AC3상+DC콤보,0,1,Y,경상북도 포항시 남구 시청로1 포항시청,경상북도 포항시 남구 대잠동 1001,한국전력공사,1899-2100,36.0187152796,129.343852775,2019-06-12,5020000,경상북도 포항시,
흥해읍사무소,외부주차장,경상북도,연중무휴,23:59,23:59,N,Y,DC차데모+AC3상+DC콤보,0,1,N,경상북도 포항시 북구 흥해읍 동해대로 1511,경상북도 포항시 북구 흥해읍 옥성리 177-5,한국자동차환경협회,1661-9408,36.1071296859,129.341725911,2019-06-12,5020000,경상북도 포항시,
포은중앙도서관,외부주차장,경상북도,연중무휴,23:59,23:59,N,Y,DC차 데모,0,1,Y,경상북도 포항시 북구 삼호로 31,경상북도 포항시  북구  덕수동 35-19,한국자동차환경협회,1661-9408,36.0439091254,129.3675824,2019-06-12,5020000,경상북도 포항시,
이마트포항점,외부주차장 3층,경상북도,"2, 4째주 일요일",10:00,23:59,N,Y,DC차데모+AC3상+DC콤보,0,1,N,경상북도 포항시 남구 냉천로 10,경상북도 포항시 남구 인덕동 161-176,한국자동차환경협회,1661-9408,35.99247451,129.397627935,2019-06-12,5020000,경상북도 포항시,
영일대1주차장,외부주차장,경상북도,연중무휴,23:59,23:59,N,Y,DC차데모+AC3상+DC콤보,0,1,N,경상북도 포항시 북구 해안로 82,경상북도 포항시 북구 두호동 724,한국자동차환경협회,1661-9408,36.056058,129.378003,2019-06-12,5020000,경상북도 포항시,
남구청,외부주차장,경상북도,연중무휴,23:59,23:59,N,Y,DC차데모+AC3상+DC콤보,0,1,N,경상북도 포항시 남구 희망대로 790,경상북도 포항시 남구 대도동 381-4,한국자동차환경협회,1661-9408,36.007796,129.359323896,2019-06-12,5020000,경상북도 포항시,
현대자동차포항서비스센터,외부주차장,경상북도,연중무휴,23:59,23:59,Y,Y,DC차데모+DC콤보(현대자동차에 한함),2,1,N,경상북도 포항시 남구 연일읍 동문로 102,경상북도 포항시 남구 연일읍 오천리 163-1,현대자동차,080-600-6000,35.9992797377,129.353913,2019-06-12,5020000,경상북도 포항시,
한국전력공사포항지사구룡포서비스센터,외부주차장,경상북도,"주중,주말",06:00,23:00,N,Y,DC차데모+AC3상+DC콤보,0,1,N,경상북도 포항시 남구 구룡포길101번길5-2,경상북도 포항시 남구 구룡포읍 구룡포리 466-1,한국전력공사,1899-2100,35.9925314802,129.556231,2019-06-12,5020000,경상북도 포항시,
포항시청소년수련관,외부주차장,경상북도,연중무휴,23:59,23:59,N,Y,DC차데모+AC3상+DC콤보,0,1,N,경상북도 포항시 북구 삼호로 533,경상북도 포항시 북구 환호동 185,한국자동차환경협회,1661-9408,36.0754115114,129.396024589,2019-06-12,5020000,경상북도 포항시,
기아자동차포항서비스센터,외부주차장,경상북도,평일,08:30,17:30,Y,Y,DC차데모+DC콤보(기아자동차에 한함),1,1,N,경상북도 포항시 북구 중앙로 185,경상북도 포항시 북구 죽도동 57-3,기아자동차,080-200-2000,36.0296428536,129.3663965,2019-06-12,5020000,경상북도 포항시,
한국전력공사포항지사,외부주차장,경상북도,"주중,주말",06:00,23:00,N,Y,DC차데모+AC3상+DC콤보,0,1,N,경상북도 포항시 남구 희망대로 677,경상북도 포항시 남구 상도동 592,한국전력공사,1899-2100,36.010721,129.346850526,2019-06-12,5020000,경상북도 포항시,
한국전력공사북포항지사,외부주차장,경상북도,"주중,주말",06:00,23:00,N,Y,DC차데모+AC3상+DC콤보,0,1,N,경상북도 포항시 북구 흥해읍 흥해로 100,경상북도 포항시 북구 흥해읍 약성리 121-2,한국전력공사,1899-2100,36.113712,129.3475814,2019-06-12,5020000,경상북도 포항시,
포항문화원,외부주차장,경상북도,연중무휴,23:59,23:59,N,Y,DC차데모+AC3상+DC콤보,0,1,N,경상북도 포항시 북구 새천년대로 909(우현동),경상북도 포항시 북구 새천년대로 909(우현동),한국전력공사,1899-2101,36.053382,129.3605209,2019-06-12,5020000,경상북도 포항시,
연일읍사무소,외부주차장,경상북도,연중무휴,23:59,23:59,N,Y,DC차데모+AC3상+DC콤보,0,1,N,경상북도 포항시 남구 연일읍 철강로 10,경상북도 포항시 남구 연일읍 철강로 10,한국전력공사,1899-2102,35.9917094982,129.343722833,2019-06-12,5020000,경상북도 포항시,
양덕한마음체육관,외부주차장,경상북도,연중무휴,23:59,23:59,N,Y,DC차데모+AC3상+DC콤보,0,1,N,경상북도 포항시 북구 새천년대로 1460번길(양덕동),경상북도 포항시 북구 새천년대로 1460번길(양덕동),한국전력공사,1899-2103,36.041824,129.365649,2019-06-12,5020000,경상북도 포항시,
포항철강관리공단,외부주차장,경상북도,연중무휴,23:59,23:59,N,Y,DC차데모+AC3상+DC콤보(1)+DC콤보(2),0,3,N,경상북도 포항시 남구 철강로 362(호동),경상북도 포항시 남구 철강로 362(호동),한국자동차환경협회,1661-9408,35.97822785,129.379181555,2019-06-12,5020000,경상북도 포항시,
기계면사무소,외부주차장,경상북도,연중무휴,23:59,23:59,N,Y,DC차데모+AC3상+DC콤보(1)+DC콤보(2),0,3,N,경상북도 포항시 북구 기계면 근면길 14,경상북도 포항시 북구 기계면 근면길 14,한국자동차환경협회,1661-9408,36.0720196973,129.209888046,2019-06-12,5020000,경상북도 포항시,
구룡포읍사무소,외부주차장,경상북도,연중무휴,23:59,23:59,N,Y,DC차데모+AC3상+DC콤보(1)+DC콤보(2),0,3,N,경상북도 포항시 남구 구룡포읍 호미로 133,경상북도 포항시 남구 구룡포읍 호미로 133,한국자동차환경협회,1661-9408,35.985065,129.546103,2019-06-12,5020000,경상북도 포항시,
대송다목적복지회관,외부주차장,경상북도,연중무휴,23:59,23:59,N,Y,DC차데모+AC3상+DC콤보(1)+DC콤보(2),0,3,N,경상북도 포항시 남구 대송면 운제로 111,경상북도 포항시 남구 대송면 운제로 111,한국자동차환경협회,1661-9408,35.97833233,129.362229163,2019-06-12,5020000,경상북도 포항시,
양덕하나로마트,외부주차장,경상북도,연중무휴,23:59,23:59,N,Y,DC차데모+AC3상+DC콤보,0,1,N,경상북도 포항시 북구 장량로 171(양덕동),경상북도 포항시 북구 장량로 171(양덕동),한국전력공사,1899-2100,36.0821674344,129.398436249,2019-06-12,5020000,경상북도 포항시,
홈플러스포항점,외부주차장,경상북도,연중무휴,10:00,23:59,N,Y,DC차데모+AC3상+DC콤보,0,1,N,경상북도 포항시 남구 중흥로 77(상도동),경상북도 포항시 남구 중흥로 77(상도동),한국전력공사,1899-2100,36.012741527,129.348923519,2019-06-12,5020000,경상북도 포항시,
롯데마트 포항지점,내부주차장,경상북도,연중무휴,10:00,23:00,N,Y,DC차데모+AC3상+DC콤보,0,1,N,경상북도 포항시 남구 지곡로 237(지곡동),경상북도 포항시 남구 지곡로 237(지곡동),한국자동차환경협회,1661-9408,36.0271944609,129.324844093,2019-06-12,5020000,경상북도 포항시,
애지중지카페,외부주차장,경상북도,연중무휴,23:59,23:59,N,Y,DC차데모+AC3상+DC콤보,0,1,N,경상북도 포항시 남구 장기면 동해안로 2987,경상북도 포항시 남구 장기면 동해안로 2987,한국자동차환경협회,1661-9408,35.862552,129.525009,2019-06-12,5020000,경상북도 포항시,
포항공과대학 포스빌6동주차장,외부주차장,경상북도,연중무휴,23:59,23:59,N,Y,DC차데모+AC3상+DC콤보,0,1,N,경상북도 포항시 남구 지곡로 83(지곡동),경상북도 포항시 남구 지곡로 83(지곡동),한국자동차환경협회,1661-9408,36.014028,129.324935,2019-06-12,5020000,경상북도 포항시,
포항공항,외부주차장,경상북도,연중무휴,23:59,23:59,N,Y,DC차데모+AC3상+DC콤보,0,1,N,경상북도 포항시 남구 동해면 일월로 18,경상북도 포항시 남구 동해면 일월로 18,한국자동차환경협회,1661-9408,35.9841149888,129.434037297,2019-06-12,5020000,경상북도 포항시,
선린대학교,외부주차장,경상북도,연중무휴,23:59,23:59,N,Y,DC차데모+AC3상+DC콤보,0,1,N,경상북도 포항시 북구 흥해읍 초곡길 36번길30,경상북도 포항시 북구 흥해읍 초곡길 36번길30,한국자동차환경협회,1661-9408,36.0907836713,129.333154829,2019-06-12,5020000,경상북도 포항시,
GS슈퍼마켓포항창포점,외부주차장,경상북도,연중무휴,23:59,23:59,N,Y,DC차데모+AC3상+DC콤보,0,1,N,경상북도 포항시 북구 새천년대로 1076번길 4(두호동),경상북도 포항시 북구 새천년대로 1076번길 4(두호동),대영채비,1522-2573,36.063717,129.371843,2019-06-12,5020000,경상북도 포항시,
오션힐스포항컨트리클럽(동해리조트주차장),외부주차장,경상북도,연중무휴,23:59,23:59,N,Y,DC차데모+AC3상+DC콤보,0,1,N,경상북도 포항시 북구 송라면 대전길 7-1,,대영채비,1522-2573,36.243753,129.359041,2019-06-12,5020000,경상북도 포항시,
아산시청,아산시청 주차장,충청남도,연중무휴,00:00,23:59,N,Y,DC차데모+AC3상+DC콤보,,1,N,충청남도 아산시 시민로 456,충청남도 아산시 온천동 1626,한국자동차환경협회,1661-9408,36.7898211,127.001359,2018-09-21,4520000,충청남도 아산시,
아산시청,아산시청 주차장,충청남도,연중무휴,00:00,23:59,Y,N,KL10-DS2K,3,,N,충청남도 아산시 시민로 456,충청남도 아산시 온천동 1626,지엔텔컨소시엄,1544-4279,36.790482,127.004203,2018-09-21,4520000,충청남도 아산시,
아트센터 고마,아트센터 고마 내 주차장 입구 부근,충청남도,무,00:00,23:59,N,Y,"DC차데모, AC3상,DC 콤보",0,1,N,충청남도 공주시 고마나루길 90,충청남도 공주시 웅진동 347,한국자동차환경협회,1661-9408,36.466804,127.107693,2018-08-24,4500000,충청남도 공주시,
김천휴게소(서울방향),경상북도 김천시 농소면 경부고속도로 194,경상북도,없음,00:00,23:59,Y,Y,DC차데모+AC3상+DC콤보,0,1,N,경상북도 김천시 농소면 경부고속도로 194,경상북도 김천시 농소면 신촌리 730,,,36.130758,128.164043,2018-08-28,5060000,경상북도 김천시,
김천휴게소(부산방향),경상북도 김천시 농소면 경부고속도로 193,경상북도,없음,00:00,23:59,Y,Y,DC차데모+AC3상+DC콤보,0,1,N,경상북도 김천시 농소면 경부고속도로 193,경상북도 김천시 농소면 신촌리 730-2,,,36.129349,128.164198,2018-08-28,5060000,경상북도 김천시,
녹색미래과학관,경상북도 김천시 혁신6로 31,경상북도,없음,00:00,23:59,N,Y,DC차데모+AC3상+DC콤보,0,1,N,경상북도 김천시 혁신6로 31,경상북도 김천시 율곡동 922,,,36.123875,128.184483,2018-08-28,5060000,경상북도 김천시,
김천지사,경상북도 김천시 모암길 210,경상북도,없음,00:00,23:59,Y,Y,DC차데모+AC3상+DC콤보,4,2,N,경상북도 김천시 모암길 210,경상북도 김천시 성내동 20,,,36.126495,128.119656,2018-08-28,5060000,경상북도 김천시,
아포읍사무소,경상북도 김천시 아포읍 국사길 63,경상북도,없음,00:00,23:59,N,Y,DC차데모+AC3상+DC콤보,0,1,N,경상북도 김천시 아포읍 국사길 63,경상북도 김천시 아포읍 국사리 126-1,,,36.159729,128.253390,2018-08-28,5060000,경상북도 김천시,
한국도로공사본사,경상북도 김천시 혁신8로 77,경상북도,없음,00:00,23:59,N,Y,DC차데모+AC4상+DC콤보,0,2,N,경상북도 김천시 혁신8로 77,경상북도 김천시 율곡동 941,,,36.128129,128.189278,2018-08-28,5060000,경상북도 김천시,
롯데마트,경상북도 김천시 시청로 80(신음동),경상북도,없음,00:00,23:59,N,Y,DC차데모+AC5상+DC콤보,0,1,N,경상북도 김천시 시청로 80(신음동),경상북도 김천시 신음동 470,,,36.136082,128.118078,2018-08-28,5060000,경상북도 김천시,
김천시청,경상북도 김천시 시청1길 1(신음동),경상북도,없음,00:00,23:59,N,Y,DC차데모+AC6상+DC콤보,0,2,N,경상북도 김천시 시청1길 1(신음동),경상북도 김천시 1284,,,36.139637,128.114080,2018-08-28,5060000,경상북도 김천시,
지좌동 주민센터,경상북도 김천시 영남대로 1940,경상북도,없음,00:00,23:59,N,Y,DC차데모+AC7상+DC콤보,0,2,N,경상북도 김천시 영남대로 1940,경상북도 김천시 지좌동 440-73,,,36.119522,128.144671,2018-08-28,5060000,경상북도 김천시,
부곡근린공원 주차장,경상북도 김천시 부곡동 1533-1,경상북도,없음,00:00,23:59,N,Y,DC차데모+AC8상+DC콤보,0,2,N,경상북도 김천시 부곡동 1533-1,경상북도 김천시 부곡동 1533-1,,,36.124899,128.089398,2018-08-28,5060000,경상북도 김천시,
송파구청,지상주차장,서울특별시,없음,00:00,24:00,N,Y,DC차데모+AC3상+DC콤보,0,1,Y,서울특별시 송파구 올림픽로 326,서울특별시 송파구 신천동 29-5,서울특별시 송파구청,02-2147-2131,37.514447,127.105918,2019-05-31,3230000,서울특별시 송파구,
롯데마트 잠실점,지하주차장 1층 M148구역,서울특별시,"매월2,4주일요일",10:00,23:00,Y,Y,DC차데모+AC3상,1,2,Y,서울특별시 송파구 올림픽로 240,서울특별시 송파구 잠실동 40-1,전기자동차 헬프데스크,1661-9408,37.511267,127.080518,2019-05-31,3230000,서울특별시 송파구,
복정역 공영주차장,외부주차장,서울특별시,없음,00:00,24:00,N,Y,DC차데모+AC3상,0,1,Y,서울특별시 송파구 장지동,서울특별시 송파구 장지동 600-2,전기자동차 헬프데스크,1661-9408,37.469749,127.126622,2019-05-31,3230000,서울특별시 송파구,
마천동1공영주차장,외부주차장,서울특별시,없음,00:00,24:00,N,Y,DC차데모+AC3상+DC콤보,0,1,Y,서울특별시 송파구 성내천로43길 6,서울특별시 송파구 마천동 215,한전강동송파지사,02-480-2275,37.495400,127.155500,2019-05-31,3230000,서울특별시 송파구,
가락시장,농수산물도매시장 지하주차장,서울특별시,없음,00:00,24:00,N,Y,DC차데모+AC3상+DC콤보,0,3,Y,서울특별시 송파구 양재대로 932,서울특별시 송파구 가락동 600,한전강동송파지사,02-480-2275,37.493300,127.112300,2019-05-31,3230000,서울특별시 송파구,
서울시 농수산식품공사 친환경농산물 집배송센터,친환경농산물집배송센터 지상주차장,서울특별시,없음,00:00,24:00,Y,N,AC완속,1,0,Y,서울특별시 송파구 양재대로 932,서울특별시 송파구 가락동 600,포스코ICT,02-3435-0338,37.493395,127.111499,2019-05-31,3230000,서울특별시 송파구,
서울시 농수산식품공사 가락몰 판매동,가락몰관리업무동 지하3층 S13,서울특별시,없음,00:00,24:00,Y,N,AC완속,3,0,Y,서울특별시 송파구 양재대로 932,서울특별시 송파구 가락동 600,포스코ICT,02-3435-0338,37.493395,127.111499,2019-05-31,3230000,서울특별시 송파구,
서울시 농수산식품공사 가락몰 관리업무동,가락몰판매동 지하3층 I07,서울특별시,없음,00:00,24:00,Y,N,AC완속,3,0,Y,서울특별시 송파구 양재대로 932,서울특별시 송파구 가락동 600,포스코ICT,02-3435-0338,37.493395,127.111499,2019-05-31,3230000,서울특별시 송파구,
서울시 대명레저산업 본사,지하3층 주차장 3A 구역,서울특별시,없음,00:00,24:00,Y,N,AC완속,2,0,Y,서울특별시 송파구 법원로 135,서울특별시 송파구 문정동 641-3 대명타워,포스코ICT,02-3435-0338,37.485772,127.120397,2019-05-31,3230000,서울특별시 송파구,
롯데마트 송파점,지하4층 C8,서울특별시,"매월2,4주일요일",10:00,23:00,N,Y,DC차데모+AC3상+DC콤보,0,1,Y,서울특별시 송파구 중대로 80,서울특별시 송파구 문정동 150-2 문정프라자,환경부,1661-9408,37.491710,127.117737,2019-05-31,3230000,서울특별시 송파구,
아시아공원 공영주차장,외부주차장,서울특별시,없음,00:00,24:00,N,Y,DC차데모+AC3상+DC콤보,0,3,Y,서울특별시 송파구 잠실동 84,서울특별시 송파구 잠실동 84 아시아공원,환경부,1661-9408,37.510510,127.076340,2019-05-31,3230000,서울특별시 송파구,
방이동 공영주차장,외부주차장,서울특별시,없음,00:00,24:00,N,Y,DC차데모+AC3상+DC콤보,0,1,Y,서울특별시 송파구 백제고분로 481,서울특별시 송파구 방이동 52-1,한국전력,1899-2100,37.514897,127.113133,2019-05-31,3230000,서울특별시 송파구,
롯데월드타워&몰지하주차장,"지하 주차장 2,3,4층",서울특별시,없음,00:00,24:00,Y,Y,DC차데모+AC3상+DC콤보,112,6,Y,서울특별시 송파구 올림픽로 300,서울특별시 송파구 신천동 29,롯데물산,02-3213-0251,37.513689,127.104454,2019-05-31,3230000,서울특별시 송파구,
마천동2공영주차장,외부주차장,서울특별시,없음,00:00,24:00,N,Y,DC차데모+AC3상+DC콤보,0,1,Y,서울특별시 송파구 성내천로299-7,서울특별시 송파구 마천동 364-5 마천동2공영주차장,환경부(한국자동차환경협회),1661-9408,37.494576,127.156181,2019-05-31,3230000,서울특별시 송파구,
거여동공영주차장,외부주차장,서울특별시,없음,00:00,24:00,N,Y,DC차데모+AC3상+DC콤보,0,1,Y,서울특별시 송파구 오금로68길8,서울특별시 송파구 거여동 33-16 거여동공영주차장,환경부(한국자동차환경협회),1661-9408,37.492539,127.150322,2019-05-31,3230000,서울특별시 송파구,
천마공영주차장,외부주차장,서울특별시,없음,00:00,24:00,N,Y,DC차데모+AC3상+DC콤보,0,1,Y,서울특별시 송파구 성내천로33가길20,서울특별시 송파구 마천동 산1-5 천마공영주차장,환경부(한국자동차환경협회),1661-9408,37.500477,127.154837,2019-05-31,3230000,서울특별시 송파구,
신천유수지 공영주차장,외부주차장,서울특별시,없음,00:00,24:00,Y,Y,DC차데모+AC3상+DC콤보,1,1,Y,서울특별시 송파구 오금로 1,서울특별시 송파구 신천동 14,한국전기차충전서비스,1522-1782,37.522050,127.103237,2019-05-31,3230000,서울특별시 송파구,
잠실역 공영주차장,외부주차장,서울특별시,없음,00:00,24:00,Y,Y,DC차데모+AC3상+DC콤보,3,1,Y,서울특별시 송파구 올림픽로 300,서울특별시 송파구 신천동 29,한국전기차충전서비스,1522-1782,37.517222,127.105264,2019-05-31,3230000,서울특별시 송파구,
딜라이트 호텔,지상주차장,서울특별시,없음,00:00,24:00,N,Y,DC차데모+AC3상+DC콤보,0,1,Y,서울특별시 송파구 오금로11길 21-9,서울특별시 송파구 방이동 36-5 잠실딜라이트호텔,케이티,1522-4700,37.515614,127.109254,2019-05-31,3230000,서울특별시 송파구,
스마트위례주유소,주유소출구,서울특별시,없음,00:00,24:00,N,Y,DC콤보,0,1,N,서울특별시 송파구 위례중앙로 43,서울특별시 송파구 장지동 908,GS칼텍스,02-409-5185,37.486348,127.133817,2019-05-31,3230000,서울특별시 송파구,
가든파이브주유소,주유소출구,서울특별시,없음,00:00,24:00,N,Y,DC콤보,0,1,N,서울특별시 송파구 탄천동로 740,서울특별시 송파구 장지동 875-1,GS칼텍스,02-409-5145,37.485198,127.133184,2019-05-31,3230000,서울특별시 송파구,
이순신순국공원,남해군 고현면 남해대로 3829(차면리),경상남도,없음,00:00,23:59,N,Y,"DC차데모,DC콤보,AC3상",0,1,N,경상남도 남해군 고현면 남해대로 3829(차면리),경상남도 남해군 고현면 차면리 107,남해군,055-860-3253,34.9133657,127.8572682,2019-06-25,5430000,경상남도 남해군,
한전남해지사,남해군 남해읍 남해대로 2962,경상남도,없음,00:00,23:59,N,Y,"DC차데모,DC콤보,AC3상",0,1,N,경상남도 남해군 남해읍 남해대로 2962,경상남도 남해군 남해읍 심천리 995-1,한국전력 남해지점,055-860-2236,34.8527245673,127.894993481,2019-06-25,5430000,경상남도 남해군,
남해유배문학관,남해군 남해읍 남해대로 2745,경상남도,없음,00:00,23:59,N,Y,"DC차데모,DC콤보,AC3상",0,1,N,경상남도 남해군 남해읍 남해대로 2745,경상남도 남해군 남해읍 남변리 555,한국전력 남해지점,055-860-2236,34.8319585778,127.899185054,2019-06-25,5430000,경상남도 남해군,
창선대교 주차장,남해군 창선면 동부대로2964번길 41,경상남도,없음,00:00,23:59,N,Y,"DC차데모,DC콤보,AC3상",0,1,N,경상남도 남해군 창선면 동부대로2964번길 41,경상남도 남해군 창선면 대벽리 6-25,한국전력 남해지점,055-860-2236,34.9173154,128.031929,2019-06-25,5430000,경상남도 남해군,
한려해상국립공원 노량분소,남해군 설천면 노량리 410-36,경상남도,없음,00:00,23:59,N,Y,"DC차데모,DC콤보,AC3상",0,2,N,경상남도 남해군 설천면 노량로 206,경상남도 남해군 설천면 노량리 410-36,한려해상국립공원,,34.9395908316,127.875152295,2019-06-25,5430000,경상남도 남해군,
한려해상국립공원 금산분소,남해군 이동면 보리암로 287,경상남도,없음,00:00,23:59,N,Y,"DC차데모,DC콤보,AC3상",0,2,N,경상남도 남해군 이동면 보리암로 287,경상남도 남해군 이동면 신전리 1-8,한려해상국립공원,,34.7730968306,127.987836607,2019-06-25,5430000,경상남도 남해군,
미조항 북항주차장,남해군 미조면 미조리 107-6,경상남도,없음,00:00,23:59,N,Y,"DC차데모,DC콤보,AC3상",0,1,N,,경상남도 남해군 미조면 미조리 107-6,남해군,055-860-3254,34.71312083,128.0452427,2019-06-25,5430000,경상남도 남해군,
창선교 주차장,남해군 삼동면 지족리 291-11,경상남도,없음,00:00,23:59,N,Y,"DC차데모,DC콤보,AC3상",0,1,N,,경상남도 남해군 삼동면 지족리 291-11,남해군,055-860-3254,34.83246483,128.0003556,2019-06-25,5430000,경상남도 남해군,
상주해수욕장 주차장,남해군 상주면 상주리 1227,경상남도,없음,00:00,23:59,N,Y,"DC차데모,DC콤보,AC3상",0,1,N,,경상남도 남해군 상주면 상주리 1227,남해군,055-860-3254,34.72244059,127.9886081,2019-06-25,5430000,경상남도 남해군,
남해읍사무소,남해군 남해읍 화전로 81,경상남도,없음,00:00,23:59,Y,N,,1,0,N,경상남도 남해군 남해읍 화전로 81,경상남도 남해군 남해읍 북변리 157,남해군 남해읍사무소,055-860-8003,34.8385428873,127.893707353,2019-06-25,5430000,경상남도 남해군,
이동면사무소,남해군 이동면 무림로 76,경상남도,없음,00:00,23:59,Y,N,,1,0,N,경상남도 남해군 이동면 무림로 76,경상남도 남해군 이동면 무림리 1021-1,남해군 이동면사무소,055-860-8053,34.7994490797,127.954420871,2019-06-25,5430000,경상남도 남해군,
삼동면사무소,남해군 삼동면 동부대로1876번길 12,경상남도,없음,00:00,23:59,Y,N,,2,0,N,경상남도 남해군 삼동면 동부대로1876번길 12,경상남도 남해군 삼동면 지족리 257-2,남해군 삼동면사무소,055-860-8153,34.8311154,128.0007861,2019-06-25,5430000,경상남도 남해군,
남면사무소,남해군 남면 남서대로 778,경상남도,없음,00:00,23:59,Y,N,,1,0,N,경상남도 남해군 남면 남서대로 778,경상남도 남해군 남면 당항리 1487,남해군 남면사무소,055-860-8254,34.7712896,127.8870599,2019-06-25,5430000,경상남도 남해군,
고현면사무소,남해군 고현면 탑동로 42,경상남도,없음,00:00,23:59,Y,N,,1,0,N,경상남도 남해군 고현면 탑동로 42,경상남도 남해군 고현면 대사리 703-6,남해군 고현면사무소,055-860-8363,34.8952963,127.8742367,2019-06-25,5430000,경상남도 남해군,
설천면사무소,남해군 설천면 설천로 695,경상남도,없음,00:00,23:59,Y,N,,1,0,N,경상남도 남해군 설천면 설천로 695,경상남도 남해군 설천면 남양리 169-4,남해군 설천면사무소,055-860-8405,34.9248426,127.9140336,2019-06-25,5430000,경상남도 남해군,
창선면사무소,남해군 창선면 창선로97번길 6,경상남도,없음,00:00,23:59,Y,N,,1,0,N,경상남도 남해군 창선면 창선로97번길 6,경상남도 남해군 창선면 상죽리 137-1,남해군 창선면사무소,055-860-8454,34.857709,128.0121351,2019-06-25,5430000,경상남도 남해군,
용두동 공영주차장,대전광역시 중구 동서대로 1322번길 81,대전광역시,연중무휴,00:00,24:00,N,Y,DC차데모+AC3상+DC콤보,0,2,N,대전광역시 중구 동서대로 1322번길 81,대전광역시 중구 용두동 31-2,환경부(한국자동차환경협회),1661-9408,36.3260288,127.4093433,2019-04-11,3650000,대전광역시 중구,
대사동제1공영주차장,대전광역시 중구 대사동 145-1,대전광역시,연중무휴,00:00,24:00,N,Y,DC차데모+AC3상+DC콤보,0,1,N,대전광역시 중구 보문산공원로 527,대전광역시 중구 대사동 145-1,환경부(한국자동차환경협회),1661-9408,36.3150809,127.4242304,2019-04-11,3650000,대전광역시 중구,
사정동제2노상공영주차장,대전광역시 중구 사정동 403,대전광역시,연중무휴,00:00,24:00,N,Y,DC차데모+AC3상+DC콤보,0,1,N,,대전광역시 중구 사정동 403,환경부(한국자동차환경협회),1661-9408,36.2964450,127.3852420,2019-04-11,3650000,대전광역시 중구,
중구청사,대전광역시 중구 중앙로 100(대흥동),대전광역시,연중무휴,00:00,24:00,N,Y,DC차데모+AC3상+DC콤보,0,2,N,대전광역시 중구 중앙로 100(대흥동),대전광역시 중구 대흥동 499-1,환경부(한국자동차환경협회),1661-9408,36.2886107,127.3977884,2019-04-11,3650000,대전광역시 중구,
오월드 내 주차장,대전광역시 중구 사정동 142  플라워랜드 주차장,대전광역시,연중무휴,00:00,24:00,N,Y,DC차데모+AC3상+DC콤보,0,1,N,대전광역시 중구 사정공원로 70,대전광역시 중구 사정동 142  플라워랜드 주차장,환경부(한국자동차환경협회),1661-9408,36.2884029,127.3778062,2019-04-11,3650000,대전광역시 중구,
㈜농협대전유통,대전광역시 중구 대둔산로 199번길 43,대전광역시,연중무휴,00:00,24:00,N,Y,DC차데모+AC3상+DC콤보,0,1,N,대전광역시 중구 대둔산로 199번길 43,대전광역시 중구 안영동 703,한국전력,1899-2100,36.3172026,127.4285703,2019-04-11,3650000,대전광역시 중구,
한밭종합운동장 주차장,대전광역시 중구 대종로 373,대전광역시,연중무휴,00:00,24:00,N,Y,DC차데모+DC콤보,0,5,N,대전광역시 중구 대종로 373,대전광역시 중구 부사동 209-1,한국전력,1899-2100,36.3096812,127.4424142,2019-04-11,3650000,대전광역시 중구,
석교동주민센터,대전광역시 중구 석교동 12-4,대전광역시,연중무휴,00:00,24:00,N,Y,DC차데모+AC3상+DC콤보,0,1,N,대전광역시 중구 대종로 228,대전광역시 중구 석교동 12-4,환경부(한국자동차환경협회),1661-9408,36.2859869,127.3834148,2019-04-11,3650000,대전광역시 중구,
효문화진흥원,대전광역시 중구 안영동 71-2,대전광역시,연중무휴,00:00,24:00,N,Y,DC차데모+AC3상+DC콤보,0,1,N,대전광역시 중구 뿌리공원로 47,대전광역시 중구 안영동 71-2,환경부(한국자동차환경협회),1661-9408,36.3360016,127.4101804,2019-04-11,3650000,대전광역시 중구,
대전시 선병원,대전광역시 중구 목중로 29  주차장,대전광역시,연중무휴,00:00,24:00,Y,N,AC완속,1,0,N,대전광역시 중구 목중로 29  주차장,대전광역시 중구 목동 10-7,포스코ICT,1600-4047,36.3153167,127.4064630,2019-04-11,3650000,대전광역시 중구,
대전 중구 문화1동주민센터,대전광역시 중구 문화로 195 지상 주차장(문화1동행정복지센터),대전광역시,연중무휴,00:00,24:00,Y,N,AC완속,1,0,N,대전광역시 중구 문화로 195 지상 주차장,대전광역시 중구 문화동 284-169,지엔텔,1544-4279,36.3142319,127.4336589,2019-04-11,3650000,대전광역시 중구,
부사동주민센터,대전광역시 중구 보문로68번길 20 지상 주차장(부사동 128-11),대전광역시,연중무휴,00:00,24:00,Y,N,AC완속,1,0,N,대전광역시 중구 보문로68번길 20,대전광역시 중구 부사동 128-11,지엔텔,1544-4279,36.3233627,127.4242786,2019-04-11,3650000,대전광역시 중구,
대흥동주민센터,대전광역시 중구 대흥로 109 중구문화원 3층 지상 주차장(대흥동),대전광역시,연중무휴,00:00,24:00,Y,N,AC완속,1,0,N,"대전광역시 중구 대흥로 109(대흥동, 중구문화원)",대전광역시 중구 대흥동 448,지엔텔,1544-4279,36.3323807,127.4166636,2019-04-11,3650000,대전광역시 중구,
은행선화동행정복지센터,대전광역시 중구 보문로337번길 33 지상 주차장(선화동),대전광역시,연중무휴,00:00,24:00,Y,N,AC완속,1,0,N,대전광역시 중구 보문로337번길 33,대전광역시 중구 선화동 194-1,지엔텔,1544-4279,36.3389046026,127.4124283436,2019-04-11,3650000,대전광역시 중구,
중촌동주민센터,대전광역시 중구 대종로 663-7 지상 주차장(중촌동),대전광역시,연중무휴,00:00,24:00,Y,N,AC완속,1,0,N,대전광역시 중구 대종로 663-7,대전광역시 중구 중촌동 102-1,지엔텔,1544-4279,36.3251580,127.4104002,2019-04-11,3650000,대전광역시 중구,
용두동행정복지센터,대전광역시 중구 동서대로1322번길 111 지상 주차장(용두동),대전광역시,연중무휴,00:00,24:00,Y,N,AC완속,1,0,N,대전광역시 중구 동서대로1322번길 111,대전광역시 중구 용두동 28-10,지엔텔,1544-4279,36.3149823,127.3953094,2019-04-11,3650000,대전광역시 중구,
유천1동주민센터,대전광역시 중구 계백로1566번길 57 지상 주차장(유천1동행정복지센터),대전광역시,연중무휴,00:00,24:00,Y,N,AC완속,1,0,N,대전광역시 중구 계백로1566번길 57,대전광역시 중구 유천동 297-21,지엔텔,1544-4279,36.3217573,127.4138293,2019-04-11,3650000,대전광역시 중구,
하우스토리 2차아파트,대전광역시 중구 계룡로 900(문화동),대전광역시,연중무휴,00:00,24:00,Y,N,AC완속,2,0,N,대전광역시 중구 계룡로 901(문화동),대전광역시 중구 문화동 1-129,관리사무소,042-221-3259,36.3369266,127.4071502,2019-04-11,3650000,대전광역시 중구,
올리브힐,대전광역시 중구 목동로 70(목동),대전광역시,연중무휴,00:00,24:00,Y,Y,AC완속,3,1,N,대전광역시 중구 목동로 70(목동),대전광역시 중구 목동 362,관리사무소,042-224-0180,36.3229173794,127.42589044,2019-04-11,3650000,대전광역시 중구,
센트럴자이1단지아파트,대전광역시 중구 충무로 107번길 100(대흥동),대전광역시,연중무휴,00:00,24:00,Y,Y,AC완속,3,1,N,대전광역시 중구 충무로 107번길 100(대흥동),대전광역시 중구 대흥동 913,관리사무소,042-221-3371,36.3182504,127.3893205,2019-04-11,3650000,대전광역시 중구,
버드내마을아파트,대전광역시 중구 태평로 15(태평동),대전광역시,연중무휴,00:00,24:00,Y,Y,AC완속,4,2,N,대전광역시 중구 태평로 15(태평동),대전광역시 중구 태평동 422-7,관리사무소,042-536-1270,36.3206865,127.3907326,2019-04-11,3650000,대전광역시 중구,
버느내마을아파트2단지,대전광역시 중구 태평로 35(태평동),대전광역시,연중무휴,00:00,24:00,Y,Y,AC완속,1,1,N,대전광역시 중구 태평로 35(태평동),대전광역시 중구 태평동 551,관리사무소,042-537-1300,36.3185279,127.4126853,2019-04-11,3650000,대전광역시 중구,
쎈트럴파크3단지아파트,대전광역시 중구 계백로 1716번길 87(태평동),대전광역시,연중무휴,00:00,24:00,Y,Y,AC완속,1,1,N,대전광역시 중구 계백로 1716번길 87(태평동),대전광역시 중구 문화동 1-3,관리사무소,042-224-8877,36.3235378,127.3968994,2019-04-11,3650000,대전광역시 중구,
쌍용예가아파트,대전광역시 중구 평촌로 93(태평동),대전광역시,연중무휴,00:00,24:00,Y,Y,AC완속,2,1,N,대전광역시 중구 평촌로 93(태평동),대전광역시 중구 태평동 554,관리사무소,042-537-3183,36.3235378,127.3968994,2019-04-11,3650000,대전광역시 중구,
동해문화예술회관,강원도 동해시 평원로 15,강원도,연중무휴,00:00,24:00,Y,Y,DC콤보,2,1,N,강원도 동해시 평원로 15,,환경부(한국자동차환경협회),,37.52590638,129.1147001,2019-02-21,4210000,강원도 동해시,
동해휴게소(동해방향),강원도 동해시 동해대로 6437 동해휴게소동해방향 (망상동),강원도,연중무휴,00:00,24:00,Y,Y,DC콤보,2,1,N,강원도 동해시 동해대로 6437 동해휴게소동해방향 (망상동),,환경부(한국자동차환경협회),,37.60183454,129.0741692,2019-02-21,4210000,강원도 동해시,
동해휴게소(동해방향),강원도 동해시 동해대로 6437 동해휴게소동해방향 (망상동),강원도,연중무휴,00:00,24:00,Y,Y,DC콤보,2,1,N,강원도 동해시 동해대로 6437 동해휴게소동해방향 (망상동),,환경부(한국자동차환경협회),,37.60183454,129.0741692,2019-02-21,4210000,강원도 동해시,
추암해변 신설주차장,"강원도 동해시 추암길 200, 동해러시아대게마을 옆 주차장",강원도,연중무휴,00:00,24:00,Y,Y,DC콤보,2,1,N,"강원도 동해시 추암길 200, 동해러시아대게마을 옆 주차장",,환경부(한국자동차환경협회),,37.51078583,129.0965468,2019-02-21,4210000,강원도 동해시,
추암해변 신설주차장,"강원도 동해시 추암길 200, 동해러시아대게마을 옆 주차장",강원도,연중무휴,00:00,24:00,N,Y,DC콤보,0,1,N,"강원도 동해시 추암길 200, 동해러시아대게마을 옆 주차장",,환경부(한국자동차환경협회),,37.51078583,129.0965468,2019-02-21,4210000,강원도 동해시,
추암해변 신설주차장,"강원도 동해시 추암길 200, 동해러시아대게마을 옆 주차장",강원도,연중무휴,00:00,24:00,N,Y,DC콤보,0,1,N,"강원도 동해시 추암길 200, 동해러시아대게마을 옆 주차장",,환경부(한국자동차환경협회),,37.51078583,129.0965468,2019-02-21,4210000,강원도 동해시,
동해시 묵호동주민센터,강원도 동해시 논골길 78 (묵호진동 1-44),강원도,연중무휴,00:00,24:00,Y,N,,1,0,N,강원도 동해시 논골길 78 (묵호진동 1-44),,제주전기자동차서비스,,37.55869933,129.1142609,2019-02-21,4210000,강원도 동해시,
동해시 송정동주민센터,강원도 동해시 동해항2길 25 (송정동 854-110),강원도,연중무휴,00:00,24:00,Y,N,,1,0,N,강원도 동해시 동해항2길 25 (송정동 854-110),,제주전기자동차서비스,,37.4997157,129.1286391,2019-02-21,4210000,강원도 동해시,
동해지사,강원도 동해시 천곡로 23,강원도,연중무휴,00:00,24:00,Y,Y,DC콤보,2,1,N,강원도 동해시 천곡로 23,,한국전력,,37.52547642,129.1077359,2019-02-21,4210000,강원도 동해시,
이마트 동해점,강원도 동해시 천곡로 100,강원도,자체운영,00:00,24:00,Y,Y,DC콤보,2,1,N,강원도 동해시 천곡로 100,,한국전력,,37.52391917,129.1171253,2019-02-21,4210000,강원도 동해시,
동해시 동호동 주민센터,강원도 동해시 동호3길 35  주차장,강원도,연중무휴,00:00,24:00,Y,N,,1,0,N,강원도 동해시 동호3길 35  주차장,,포스코ICT,,37.54580176,129.1002627,2019-02-21,4210000,강원도 동해시,
동해시 발한동 주민센터,강원도 동해시 발한로 211  주차장,강원도,연중무휴,00:00,24:00,Y,N,,1,0,N,강원도 동해시 발한로 211  주차장,,포스코ICT,,37.54850783,129.1076471,2019-02-21,4210000,강원도 동해시,
동해시 북삼동 주민센터,강원도 동해시 효자남길 33-4  주차장,강원도,연중무휴,00:00,24:00,Y,N,,1,0,N,강원도 동해시 효자남길 33-4  주차장,,포스코ICT,,37.4894089,129.1075982,2019-02-21,4210000,강원도 동해시,
동해시 북평동 주민센터,강원도 동해시 대동로 137  주차장,강원도,연중무휴,00:00,24:00,Y,N,,1,0,N,강원도 동해시 대동로 137  주차장,,포스코ICT,,37.4837475,129.1250404,2019-02-21,4210000,강원도 동해시,
동해시 동해무릉건강숲,강원도 동해시 삼화로 455  주차장,강원도,연중무휴,00:00,24:00,Y,N,,1,0,N,강원도 동해시 삼화로 455  주차장,,포스코ICT,,37.46510525,129.0312973,2019-02-21,4210000,강원도 동해시,
동해현진관광호텔,"강원도 동해시 동굴로 125-3 (천곡동, 동해현진관광호텔)",강원도,자체운영,00:00,24:00,Y,N,,1,0,N,"강원도 동해시 동굴로 125-3 (천곡동, 동해현진관광호텔)",,케이티,,37.51979599,129.1176973,2019-02-21,4210000,강원도 동해시,
동해현진관광호텔,"강원도 동해시 동굴로 125-3 (천곡동, 동해현진관광호텔)",강원도,자체운영,00:00,24:00,Y,N,,1,0,N,"강원도 동해시 동굴로 125-3 (천곡동, 동해현진관광호텔)",,케이티,,37.51979599,129.1176973,2019-02-21,4210000,강원도 동해시,
동해약천온천실버타운,"강원도 동해시 석두골길 145 (망상동, 동해망상실버타운)",강원도,연중무휴,00:00,24:00,Y,N,,1,0,N,"강원도 동해시 석두골길 145 (망상동, 동해망상실버타운)",,케이티,,37.59415125,129.0669473,2019-02-21,4210000,강원도 동해시,
동해그랜드관광호텔,강원도 동해시 동해대로 6285,강원도,연중무휴,00:00,24:00,Y,N,,1,0,N,강원도 동해시 동해대로 6285,,케이티,,37.59294507,129.0865424,2019-02-21,4210000,강원도 동해시,
봉화군청,봉화군청 지하차고,경상북도,연중무휴,09:00,18:00,Y,N,,1,0,N,경상북도 봉화군 봉화읍 봉화로 1111,경상북도 봉화군 봉화읍 내성리 537,경상북도 봉화군청,054-679-6402,36.8930821,128.732561,2019-04-17,5240000,경상북도 봉화군,
구시장 공공급속충전소,봉화읍 구시장 공영주차장,경상북도,연중무휴,00:00,23:59,N,Y,DC차데모+AC3상+DC콤보,0,1,N,,경상북도 봉화군 봉화읍 내성리 231-30,경상북도 봉화군청,054-679-6402,36.889361,128.738906,2019-04-17,5240000,경상북도 봉화군,
국립백두대간수목원,국립백두대간수목원 춘양목 1주차장,경상북도,연중무휴,08:00,18:00,N,Y,DC콤보,0,1,N,경상북도 봉화군 춘양면 춘양로 1501,경상북도 봉화군 춘양면 서벽리 509-4,국립백두대간수목원,054-679-1000,37.008305,128.830548,2019-04-17,5240000,경상북도 봉화군,
제주도청 1청사,본관주차장,제주특별자치도,연중무휴,00:00,23:59,N,Y,,,,N,제주특별자치도 제주시 문연로 6,제주특별자치도 제주시 연동 312-1,환경부(한국자동차환경협회),,33.4888341,126.4980797,2018-07-03,6500000,제주특별자치도,
제주시청,입구 좌측 주차장,제주특별자치도,연중무휴,00:00,23:59,N,Y,,,,N,제주특별자치도 제주시 광양9길 10,제주특별자치도 제주시 이도2동 1176-1,환경부(한국자동차환경협회),,33.4999974,126.5319439,2018-07-03,6500000,제주특별자치도,
제주도청 제2청사,제2청사 입구 좌측 본관 주차장,제주특별자치도,연중무휴,00:00,23:59,N,Y,,,,N,제주특별자치도 제주시 문연로 30,제주특별자치도 제주시 연동 322-1,환경부(한국자동차환경협회),,33.4890071,126.5006816,2018-07-03,6500000,제주특별자치도,
제주애월읍사무소,본관주차장,제주특별자치도,연중무휴,00:00,23:59,N,Y,,,,N,제주특별자치도 제주시 애월읍 일주서로 6322,제주특별자치도 제주시 애월읍 애월리 240,환경부(한국자동차환경협회),,33.466277,126.3511114,2018-07-03,6500000,제주특별자치도,
구좌읍사무소,주차장,제주특별자치도,연중무휴,00:00,23:59,N,Y,,,,N,제주특별자치도 제주시 구좌읍 일주동로 3116,제주특별자치도 제주시 구좌읍 세화리 1561-7,환경부(한국자동차환경협회),,33.5225439,126.8520848,2018-07-03,6500000,제주특별자치도,
산굼부리,본관주차장,제주특별자치도,연중무휴,00:00,23:59,N,Y,,,,N,제주특별자치도 제주시 조천읍 비자림로 768,제주특별자치도 제주시 조천읍 교래리 342-2,환경부(한국자동차환경협회),,33.4349076,126.6885996,2018-07-03,6500000,제주특별자치도,
한경면체육관,본관주차장,제주특별자치도,연중무휴,00:00,23:59,N,Y,,,,N,제주특별자치도 제주시 한경면 칠전로 41,제주특별자치도 제주시 한경면 고산리 1881-2,환경부(한국자동차환경협회),,33.3014102,126.1845554,2018-07-03,6500000,제주특별자치도,
한라도서관,본관주차장,제주특별자치도,연중무휴,00:00,23:59,N,Y,,,,N,제주특별자치도 제주시 오남로 221,제주특별자치도 제주시 오라이동 899-3,환경부(한국자동차환경협회),,33.4763664,126.516046,2018-07-03,6500000,제주특별자치도,
거문오름,소형주차장,제주특별자치도,연중무휴,00:00,23:59,N,Y,,,,N,제주특별자치도 제주시 조천읍 선교로 569-36,제주특별자치도 제주시 조천읍 선흘리 478,환경부(한국자동차환경협회),,33.4570307,126.7142999,2018-07-03,6500000,제주특별자치도,
동백동산습지센터,주차장,제주특별자치도,연중무휴,00:00,23:59,N,Y,,,,N,제주특별자치도 제주시 조천읍 선흘리 산12,,환경부(한국자동차환경협회),,33.5142094,126.718764,2018-07-03,6500000,제주특별자치도,
어리목휴게소,오른쪽 화장실 앞,제주특별자치도,연중무휴,00:00,23:59,N,Y,,,,N,제주특별자치도 제주시 1100로 2070-61,제주특별자치도 제주시 해안동 220-13,환경부(한국자동차환경협회),,33.3922314,126.4945663,2018-07-03,6500000,제주특별자치도,
제주현대미술관,입구 주차장 D구역,제주특별자치도,연중무휴,00:00,23:59,N,Y,,,,N,제주특별자치도 제주시 한경면 저지리 2114-82,,환경부(한국자동차환경협회),,33.338432,126.2659642,2018-07-03,6500000,제주특별자치도,
관음사지구안내소,좌측 잔디주차장,제주특별자치도,연중무휴,00:00,23:59,N,Y,,,,N,제주특별자치도 제주시 산록북로 660,제주특별자치도 제주시 아라1동 387,환경부(한국자동차환경협회),,33.4217169,126.5588129,2018-07-03,6500000,제주특별자치도,
비자림,주차장 좌측 화장실 앞,제주특별자치도,연중무휴,00:00,23:59,N,Y,,,,N,제주특별자치도 제주시 구좌읍 비자숲길 55,제주특별자치도 제주시 구좌읍 평대리 3161-1,환경부(한국자동차환경협회),,33.4913168,126.8113883,2018-07-03,6500000,제주특별자치도,
제주소방서 항만119센터,주차장,제주특별자치도,연중무휴,00:00,23:59,N,Y,,,,N,제주특별자치도 제주시 임항로 146,제주특별자치도 제주시 건입동 902-2,환경부(한국자동차환경협회),,33.5201279,126.5393656,2018-07-03,6500000,제주특별자치도,
노형동주민센터,주차장,제주특별자치도,연중무휴,00:00,23:59,N,Y,,,,N,제주특별자치도 제주시 노형9길 9-4,제주특별자치도 제주시 노형동 3793-1,환경부(한국자동차환경협회),,33.4771889,126.4742632,2018-07-03,6500000,제주특별자치도,
방송통신융합센터,주차장,제주특별자치도,연중무휴,00:00,23:59,N,Y,,,,N,제주특별자치도 제주시 첨단로 241,제주특별자치도 제주시 영평동 2231-1,환경부(한국자동차환경협회),,33.4564727,126.5714479,2018-07-03,6500000,제주특별자치도,
삼양동주민센터,주차장,제주특별자치도,연중무휴,00:00,23:59,N,Y,,,,N,제주특별자치도 제주시 지석13길 6,제주특별자치도 제주시 삼양2동 2136-9,환경부(한국자동차환경협회),,33.5218396,126.5857081,2018-07-03,6500000,제주특별자치도,
녹고뫼안트레안내센터,도로쪽 주차장,제주특별자치도,연중무휴,00:00,23:59,N,Y,,,,N,제주특별자치도 제주시 애월읍 녹고메길 165,제주특별자치도 제주시 애월읍 유수암리 1178-1,환경부(한국자동차환경협회),,33.408712,126.4068171,2018-07-03,6500000,제주특별자치도,
돌문화공원,장애인주차장 2번,제주특별자치도,연중무휴,00:00,23:59,N,Y,,,,N,제주특별자치도 제주시 조천읍 남조로 2023,제주특별자치도 제주시 조천읍 산 101,환경부(한국자동차환경협회),,33.4417685,126.6666615,2018-07-03,6500000,제주특별자치도,
봉성리종합복지회관,주차장,제주특별자치도,연중무휴,00:00,23:59,N,Y,,,,N,제주특별자치도 제주시 애월읍 봉성로 105,제주특별자치도 제주시 애월읍 봉성리 3808-6,환경부(한국자동차환경협회),,33.4221038,126.3124995,2018-07-03,6500000,제주특별자치도,
제주종합경기장1,실내수영장 앞 주차장,제주특별자치도,연중무휴,00:00,23:59,N,Y,,,,N,제주특별자치도 제주시 서광로2길 24,제주특별자치도 제주시 오라1동 1137,환경부(한국자동차환경협회),,33.4949885,126.5189264,2018-07-03,6500000,제주특별자치도,
쇠소깍 공영주차장,쇠소깍 끝 주차장,제주특별자치도,연중무휴,00:00,23:59,N,Y,,,,N,제주특별자치도 서귀포시 쇠소깍로 104,제주특별자치도 서귀포시 하효동 990-1,환경부(한국자동차환경협회),,33.2542498,126.6224923,2018-07-03,6500000,제주특별자치도,
생물종다양성연구소,입구 왼쪽,제주특별자치도,연중무휴,00:00,23:59,N,Y,,,,N,제주특별자치도 서귀포시 남원읍 신례동로 338,제주특별자치도 서귀포시 신례리 2162-43,환경부(한국자동차환경협회),,33.3005604,126.6368304,2018-07-03,6500000,제주특별자치도,
제주종합경기장2,애향운동장 앞 주차장,제주특별자치도,연중무휴,00:00,23:59,N,Y,,,,N,제주특별자치도 제주시 서광로2길 24,제주특별자치도 제주시 오라1동 1137,환경부(한국자동차환경협회),,33.4949885,126.5189264,2018-07-03,6500000,제주특별자치도,
외도동 주민센터,주차장,제주특별자치도,연중무휴,00:00,23:59,N,Y,,,,N,제주특별자치도 제주시 일주서로 7350,제주특별자치도 제주시 외도이동 233-4,환경부(한국자동차환경협회),,33.4929556,126.4322517,2018-07-03,6500000,제주특별자치도,
건입동 주민센터,주차장,제주특별자치도,연중무휴,00:00,23:59,N,Y,,,,N,제주특별자치도 제주시 만덕로 18,제주특별자치도 제주시 건입동 1189-2,환경부(한국자동차환경협회),,33.5150116,126.5315988,2018-07-03,6500000,제주특별자치도,
해군호텔,주차장,제주특별자치도,연중무휴,00:00,23:59,N,Y,,,,N,제주특별자치도 제주시 해안마을서2길 19,제주특별자치도 제주시 해안동 2378-1,환경부(한국자동차환경협회),,33.4590325,126.448717,2018-07-03,6500000,제주특별자치도,
제주농업기술센터,주차장,제주특별자치도,연중무휴,00:00,23:59,N,Y,,,,N,제주특별자치도 제주시 애월읍 상귀길 173,제주특별자치도 제주시 애월읍 상귀리 750,환경부(한국자동차환경협회),,33.4592643,126.403769,2018-07-03,6500000,제주특별자치도,
만장굴,주차장,제주특별자치도,연중무휴,00:00,23:59,N,Y,,,,N,제주특별자치도 제주시 구좌읍 만장굴길 182,제주특별자치도 제주시 월정리 산 41-5,환경부(한국자동차환경협회),,33.5291000,126.7714308,2018-07-03,6500000,제주특별자치도,
성판악,주차장,제주특별자치도,연중무휴,00:00,23:59,N,Y,,,,N,제주특별자치도 제주시 조천읍 516로 1865,제주특별자치도 제주시 조천읍 교래리 산 137-24,환경부(한국자동차환경협회),,33.3848518,126.6195473,2018-07-03,6500000,제주특별자치도,
도남1차e편한세상아파트,주차장,제주특별자치도,연중무휴,00:00,23:59,N,Y,,,,N,제주특별자치도 제주시 오남로 7-13,제주특별자치도 제주시 도남동 800,환경부(한국자동차환경협회),,33.4949748,126.5226164,2018-07-03,6500000,제주특별자치도,
민속자연사박물관,주차장,제주특별자치도,연중무휴,00:00,23:59,N,Y,,,,N,제주특별자치도 제주시 삼성로 40,제주특별자치도 제주시 일도이동 996-1,환경부(한국자동차환경협회),,33.5061399,126.5316454,2018-07-03,6500000,제주특별자치도,
한라생태숲,한라생태숲관리연구소,제주특별자치도,연중무휴,00:00,23:59,N,Y,,,,N,제주특별자치도 제주시 516로 2596,제주특별자치도 제주시 용강동 산 14-1,환경부(한국자동차환경협회),,33.430924,126.595761,2018-07-03,6500000,제주특별자치도,
제주특별자치도 인재개발원,주차장,제주특별자치도,연중무휴,00:00,23:59,N,Y,,,,N,제주특별자치도 제주시 산천단동길 26,제주특별자치도 제주시 아라일동 368-20,환경부(한국자동차환경협회),,33.4468976,126.5601614,2018-07-03,6500000,제주특별자치도,
외도부영2차아파트,주차장,제주특별자치도,연중무휴,00:00,23:59,N,Y,,,,N,제주특별자치도 제주시 우평로 318,제주특별자치도 제주시 외도일동 560-2,환경부(한국자동차환경협회),,33.4849821,126.4329506,2018-07-03,6500000,제주특별자치도,
교래자연휴양림,주차장,제주특별자치도,연중무휴,00:00,23:59,N,Y,,,,N,제주특별자치도 제주시 조천읍 남조로 2023,제주특별자치도 제주시 조천읍 교래리 산 95,환경부(한국자동차환경협회),,33.4417685,126.6666615,2018-07-03,6500000,제주특별자치도,
신천지아파트,주차장,제주특별자치도,연중무휴,00:00,23:59,N,Y,,,,N,제주특별자치도 제주시 천수로 72,제주특별자치도 제주시 일도이동 47-1,환경부(한국자동차환경협회),,33.5044984,126.5442752,2018-07-03,6500000,제주특별자치도,
설문대여성문화센터,주차장,제주특별자치도,연중무휴,00:00,23:59,N,Y,,,,N,제주특별자치도 제주시 선덕로 8길 12,제주특별자치도 제주시 연동 324-10,환경부(한국자동차환경협회),,33.4844207,126.500595,2018-07-03,6500000,제주특별자치도,
봉개동 주민센터,주차장,제주특별자치도,연중무휴,00:00,23:59,N,Y,,,,N,제주특별자치도 제주시 봉개북1길 15,제주특별자치도 제주시 봉개동 1824-1,환경부(한국자동차환경협회),,33.4917114,126.5948784,2018-07-03,6500000,제주특별자치도,
보건환경연구원,주차장,제주특별자치도,연중무휴,00:00,23:59,N,Y,,,,N,제주특별자치도 제주시 삼동길 41,제주특별자치도 제주시 연동 1452-1,환경부(한국자동차환경협회),,33.4798486,126.4951395,2018-07-03,6500000,제주특별자치도,
추자면사무소,주차장,제주특별자치도,연중무휴,00:00,23:59,N,Y,,,,N,제주특별자치도 제주시 추자면 추자로 26,제주특별자치도 제주시 대서리 19-1,환경부(한국자동차환경협회),,33.963599,126.2961362,2018-07-03,6500000,제주특별자치도,
자치경찰단,주차장,제주특별자치도,연중무휴,00:00,23:59,N,Y,,,,N,제주특별자치도 제주시 기자길 7,제주특별자치도 제주시 아라이동 1371-2,환경부(한국자동차환경협회),,33.4850238,126.5442901,2018-07-03,6500000,제주특별자치도,
환경성질환예방관리센터,주차장,제주특별자치도,연중무휴,00:00,23:59,N,Y,,,,N,제주특별자치도 제주시 구좌읍 다랑쉬북로 68-92,제주특별자치도 제주시 구좌읍 평대리 2981,환경부(한국자동차환경협회),,33.4845806,126.8321006,2018-07-03,6500000,제주특별자치도,
애월도서관,주차장,제주특별자치도,연중무휴,00:00,23:59,N,Y,,,,N,제주특별자치도 제주시 애월읍 일주서로 6339,제주특별자치도 제주시 애월읍 고내리 1364,환경부(한국자동차환경협회),,33.4633203,126.3313846,2018-07-03,6500000,제주특별자치도,
제주농업기술원,민원인 주차장 안쪽,제주특별자치도,연중무휴,00:00,23:59,N,Y,,,,N,제주특별자치도 서귀포시 중산간서로 212,제주특별자치도 서귀포시 강정동 3458,환경부(한국자동차환경협회),,33.2613191,126.4890452,2018-07-03,6500000,제주특별자치도,
성산읍사무소,본관주차장,제주특별자치도,연중무휴,00:00,23:59,N,Y,,,,N,제주특별자치도 서귀포시 성산읍 일주동로 4330,제주특별자치도 서귀포시 성산읍 고성리 1023-2,환경부(한국자동차환경협회),,33.416346,126.889907,2018-07-03,6500000,제주특별자치도,
표선면사무소,주차장,제주특별자치도,연중무휴,00:00,23:59,N,Y,,,,N,제주특별자치도 서귀포시 표선면 표선중앙로 74,제주특별자치도 서귀포시 표선면 표선리 701,환경부(한국자동차환경협회),,33.3262254,126.8321113,2018-07-03,6500000,제주특별자치도,
대정읍사무소,본관주차장,제주특별자치도,연중무휴,00:00,23:59,N,Y,,,,N,제주특별자치도 서귀포시 대정읍 하모중앙로 20,제주특별자치도 서귀포시 대정읍 하모리 1413,환경부(한국자동차환경협회),,33.2267537,126.2520832,2018-07-03,6500000,제주특별자치도,
안덕면사무소,본관주차장,제주특별자치도,연중무휴,00:00,23:59,N,Y,,,,N,제주특별자치도 서귀포시 안덕면 화순서서로 74,제주특별자치도 서귀포시 안덕면 화순리 1961-1,환경부(한국자동차환경협회),,33.2575319,126.3307426,2018-07-03,6500000,제주특별자치도,
제주서귀포시청 제1청사,주차장,제주특별자치도,연중무휴,00:00,23:59,N,Y,,,,N,제주특별자치도 서귀포시 중앙로 105,제주특별자치도 서귀포시 서홍동 440-1,환경부(한국자동차환경협회),,33.2540922,126.5601945,2018-07-03,6500000,제주특별자치도,
제주일출랜드,본관주차장,제주특별자치도,연중무휴,00:00,23:59,N,Y,,,,N,제주특별자치도 서귀포시 성산읍 중산간동로 4150-30,제주특별자치도 서귀포시 성산읍 삼달리 1010,환경부(한국자동차환경협회),,33.3835243,126.8413634,2018-07-03,6500000,제주특별자치도,
제주국제컨벤션센터,면세점 앞 대형주차장,제주특별자치도,연중무휴,00:00,23:59,N,Y,,,,N,제주특별자치도 서귀포시 중문관광로 224,제주특별자치도 서귀포시 중문동 2700,환경부(한국자동차환경협회),,33.2413649,126.4245153,2018-07-03,6500000,제주특별자치도,
제주영어교육도시,지원사무소 앞 주차장,제주특별자치도,연중무휴,00:00,23:59,N,Y,,,,N,제주특별자치도 서귀포시 대정읍 구억리 625-1,제주특별자치도 서귀포시 대정읍 구억리 625-1,환경부(한국자동차환경협회),,33.2859513,126.2833138,2018-07-03,6500000,제주특별자치도,
산방산,주차장 장애인 주차구역 앞,제주특별자치도,연중무휴,00:00,23:59,N,Y,,,,N,제주특별자치도 서귀포시 안덕면 사계리 163-1,제주특별자치도 서귀포시 안덕면 사계리 163-1,환경부(한국자동차환경협회),,33.2359439,126.3119793,2018-07-03,6500000,제주특별자치도,
성읍민속마을,성읍민속마을 주차장 우측 끝,제주특별자치도,연중무휴,00:00,23:59,N,Y,,,,N,제주특별자치도 서귀포시 표선면 성읍정의현로22번길 7-1,제주특별자치도 서귀포시 표선면 성읍리 987,환경부(한국자동차환경협회),,33.3846452,126.802159,2018-07-03,6500000,제주특별자치도,
중문랜드,주차장 좌측,제주특별자치도,연중무휴,00:00,23:59,N,Y,,,,N,제주특별자치도 서귀포시 소보리당로164번길 62,제주특별자치도 서귀포시 상예동 2802,환경부(한국자동차환경협회),,33.2639753,126.3852041,2018-07-03,6500000,제주특별자치도,
서귀포천지연폭포,천지연폭포 매표소 앞,제주특별자치도,연중무휴,00:00,23:59,N,Y,,,,N,제주특별자치도 서귀포시 남성중로 2-15,제주특별자치도 서귀포시 서홍동 666-1,환경부(한국자동차환경협회),,33.2447447,126.5597544,2018-07-03,6500000,제주특별자치도,
제주월드컵경기장,주차장,제주특별자치도,연중무휴,00:00,23:59,N,Y,,,,N,제주특별자치도 서귀포시 법환동 870,,환경부(한국자동차환경협회),,33.2481172,126.5110332,2018-07-03,6500000,제주특별자치도,
무릉문화의집,주차장,제주특별자치도,연중무휴,00:00,23:59,N,Y,,,,N,제주특별자치도 서귀포시 대정읍 무릉리 3314-1,,환경부(한국자동차환경협회),,33.2734542,126.1990405,2018-07-03,6500000,제주특별자치도,
표선생활체육관,주차장,제주특별자치도,연중무휴,00:00,23:59,N,Y,,,,N,제주특별자치도 서귀포시 표선면 한마음초등로 399,제주특별자치도 서귀포시 표선면 하천리 1832-1,환경부(한국자동차환경협회),,33.3544886,126.8146643,2018-07-03,6500000,제주특별자치도,
제주 곶자왈 도립공원입구,도립공원입구,제주특별자치도,연중무휴,00:00,23:59,N,Y,,,,N,제주특별자치도 서귀포시 대정읍 에듀시티로 178,제주특별자치도 서귀포시 대정읍 보성리 산1,환경부(한국자동차환경협회),,33.2851761,126.2791491,2018-07-03,6500000,제주특별자치도,
서귀포예술의전당,주차장,제주특별자치도,연중무휴,00:00,23:59,N,Y,,,,N,제주특별자치도 서귀포시 태평로 270,제주특별자치도 서귀포시 서홍동 551-1,환경부(한국자동차환경협회),,33.247167,126.5510603,2018-07-03,6500000,제주특별자치도,
동부소방서,주차장,제주특별자치도,연중무휴,00:00,23:59,N,Y,,,,N,제주특별자치도 서귀포시 성산읍 일주동로 4120번길 7,제주특별자치도 서귀포시 성산읍 오조리 933,환경부(한국자동차환경협회),,33.460229,126.9100702,2018-07-03,6500000,제주특별자치도,
서귀포농업기술센터,주차장,제주특별자치도,연중무휴,00:00,23:59,N,Y,,,,N,제주특별자치도 서귀포시 남원읍 중산간동로 7413,제주특별자치도 서귀포시 남원읍 하례리 1558,환경부(한국자동차환경협회),,33.3039456,126.6708275,2018-07-03,6500000,제주특별자치도,
모구리야영장,주차장,제주특별자치도,연중무휴,00:00,23:59,N,Y,,,,N,제주특별자치도 서귀포시 성산읍 서성일로 260,제주특별자치도 서귀포시 성산읍 난산리 2971,환경부(한국자동차환경협회),,33.4268965,126.8647243,2018-07-03,6500000,제주특별자치도,
동홍동 주민센터,주차장,제주특별자치도,연중무휴,00:00,23:59,N,Y,,,,N,제주특별자치도 서귀포시 동홍로 104,제주특별자치도 서귀포시 동홍동 577,환경부(한국자동차환경협회),,33.2578824,126.5689267,2018-07-03,6500000,제주특별자치도,
영천동 주민센터,주차장,제주특별자치도,연중무휴,00:00,23:59,N,Y,,,,N,제주특별자치도 서귀포시 토평로 15,제주특별자치도 서귀포시 토평동 2202-3,환경부(한국자동차환경협회),,33.2687729,126.5867363,2018-07-03,6500000,제주특별자치도,
자치경찰단 서귀포지역경찰대,주차장,제주특별자치도,연중무휴,00:00,23:59,N,Y,,,,N,제주특별자치도 서귀포시 부두로 1,제주특별자치도 서귀포시 서귀동 556-15,환경부(한국자동차환경협회),,33.2450723,126.5658726,2018-07-03,6500000,제주특별자치도,
보목하수처리장,주차장,제주특별자치도,연중무휴,00:00,23:59,N,Y,,,,N,제주특별자치도 서귀포시 보목로 64번길 155,제주특별자치도 서귀포시 보목동 1411-1,환경부(한국자동차환경협회),,33.243313,126.5914917,2018-07-03,6500000,제주특별자치도,
서귀포 자기주도학습지원센터,주차장,제주특별자치도,연중무휴,00:00,23:59,N,Y,,,,N,제주특별자치도 서귀포시 동홍중앙로 7번길 19,제주특별자치도 서귀포시 동홍동 402-3,환경부(한국자동차환경협회),,33.2511945,126.5705907,2018-07-03,6500000,제주특별자치도,
보타리본사,주차장,제주특별자치도,연중무휴,00:00,23:59,N,Y,,,,N,제주특별자치도 제주시 애월읍 봉성리 2918,,보타리에너지,,33.4086598,126.3172482,2018-07-03,6500000,제주특별자치도,
보타리농장,주차장,제주특별자치도,연중무휴,00:00,23:59,N,Y,,,,N,제주특별자치도 제주시 애월읍 봉성리 1316-2,,보타리에너지,,33.3689588,126.3505941,2018-07-03,6500000,제주특별자치도,
제주 에코티엘,주차장,제주특별자치도,입주민외 이용불가,00:00,23:59,N,Y,,,,N,제주특별자치도 제주시 연동 251-69,,대영채비,,33.4892569,126.4876321,2018-07-03,6500000,제주특별자치도,
라온레저개발㈜,야외주차장,제주특별자치도,연중무휴,00:00,23:59,N,N,,,,N,제주특별자치도 제주시 한경면 용금로 998,제주특별자치도 제주시 한경면 저지리 산 18,지엔텔,,33.3448687,126.2782452,2018-07-03,6500000,제주특별자치도,
켄싱턴리조트 서귀포점,야외주차장,제주특별자치도,연중무휴,00:00,23:59,N,N,,,,N,제주특별자치도 서귀포시 이어도로 684,제주특별자치도 서귀포시 강정동 2677,지엔텔,,33.2335747,126.4890087,2018-07-03,6500000,제주특별자치도,
해비치호텔앤드리조트㈜,야외주차장,제주특별자치도,연중무휴,00:00,23:59,N,N,,,,N,제주특별자치도 서귀포시 표선면 원님로 399번길 319,제주특별자치도 서귀포시 표선면 신흥리 산30,지엔텔,,33.3601625,126.725640,2018-07-03,6500000,제주특별자치도,
㈜캐슬렉스 제주,야외주차장,제주특별자치도,연중무휴,00:00,23:59,Y,N,,,,N,제주특별자치도 서귀포시 안덕면 평화로 1241,제주특별자치도 서귀포시 안덕면 광평리 351,지엔텔,,33.3402516,126.3487746,2018-07-03,6500000,제주특별자치도,
라헨느리조트㈜,야외주차장,제주특별자치도,연중무휴,00:00,23:59,Y,N,,,,N,제주특별자치도 제주시 명림로 374,제주특별자치도 제주시 봉개동 237-5,지엔텔,,33.454163,126.6144026,2018-07-03,6500000,제주특별자치도,
그랑블제주알엔지㈜,야외주차장,제주특별자치도,연중무휴,00:00,23:59,Y,N,,,,N,제주특별자치도 제주시 한림읍 화전길 82,제주특별자치도 제주시 한림읍 금악리 산32-1,지엔텔,,33.348237,126.365571,2018-07-03,6500000,제주특별자치도,
테디벨리골프엔리조트,야외주차장,제주특별자치도,연중무휴,00:00,23:59,Y,N,,,,N,제주특별자치도 서귀포시 안덕면 한창로 365,제주특별자치도 서귀포시 안덕면 상창리 2893,지엔텔,,33.2890716,126.3514959,2018-07-03,6500000,제주특별자치도,
주식회사 비체올린,야외주차장,제주특별자치도,연중무휴,00:00,23:59,Y,N,,,,N,제주특별자치도 제주시 한경면 판조로 253-6,제주특별자치도 제주시 한경면 판포리 산 8,지엔텔,,33.3502456,126.2181917,2018-07-03,6500000,제주특별자치도,
우선종합주식회사,야외주차장,제주특별자치도,연중무휴,00:00,23:59,Y,N,,,,N,제주특별자치도 제주시 조천읍 함덕남2길 14,제주특별자치도 제주시 조천읍 함덕리 2551-1,지엔텔,,33.5354648,126.6614345,2018-07-03,6500000,제주특별자치도,
뉴해안풍경,야외주차장,제주특별자치도,연중무휴,00:00,23:59,Y,N,,,,N,제주특별자치도 제주시 신사수2길 8-2,제주특별자치도 제주시 도두2동 1652,지엔텔,,33.5084336,126.4752901,2018-07-03,6500000,제주특별자치도,
주식회사 캔디원,야외주차장,제주특별자치도,연중무휴,00:00,23:59,Y,N,,,,N,제주특별자치도 제주시 조천읍 선교로 384,제주특별자치도 제주시 조천읍 선흘리 1776,지엔텔,,33.4727191,126.7061921,2018-07-03,6500000,제주특별자치도,
달빛바다팬션,야외주차장,제주특별자치도,고객외 이용불가,00:00,23:59,Y,N,,,,N,제주특별자치도 제주시 어영길 64-12,제주특별자치도 제주시 용담3동 1210-5,지엔텔,,33.5182347,126.4960844,2018-07-03,6500000,제주특별자치도,
제주허브동산,야외주차장,제주특별자치도,연중무휴,00:00,23:59,Y,N,,,,N,제주특별자치도 서귀포시 표선면 돈오름로 170,제주특별자치도 서귀포시 표선면 표선리 2608,지엔텔,,33.3298498,126.8148541,2018-07-03,6500000,제주특별자치도,
해변풍경 민박,야외주차장,제주특별자치도,연중무휴,00:00,23:59,Y,N,,,,N,제주특별자치도 제주시 도두봉2길 71,제주특별자치도 제주시 도두2동 1621,지엔텔,,33.5074016,126.4757032,2018-07-03,6500000,제주특별자치도,
주식회사 노형호텔,야외주차장,제주특별자치도,연중무휴,00:00,23:59,Y,N,,,,N,제주특별자치도 제주시 수덕1길 7,제주특별자치도 제주시 노형동 1288-4,지엔텔,,33.486076,126.476315,2018-07-03,6500000,제주특별자치도,
솔,야외주차장,제주특별자치도,연중무휴,00:00,23:59,Y,N,,,,N,제주특별자치도 제주시 구좌읍 해맞이해안로 2478,제주특별자치도 제주시 구좌읍 종달리 722,지엔텔,,33.5291668,126.8538817,2018-07-03,6500000,제주특별자치도,
제주조랑말타운,야외주차장,제주특별자치도,연중무휴,00:00,23:59,Y,N,,,,N,제주특별자치도 서귀포시 표선면 번영로 2486,제주특별자치도 서귀포시 표선면 성읍리 2867,지엔텔,,33.3726822,126.7971235,2018-07-03,6500000,제주특별자치도,
느영나영초가집,야외주차장,제주특별자치도,연중무휴,00:00,23:59,Y,N,,,,N,제주특별자치도 서귀포시 남원읍 태위로 483,제주특별자치도 서귀포시 남원읍 남원리 2453-5,지엔텔,,33.280681,126.707391,2018-07-03,6500000,제주특별자치도,
동부휴게소,야외주차장,제주특별자치도,연중무휴,00:00,23:59,Y,N,,,,N,제주특별자치도 제주시 조천읍 번영로 1619,제주특별자치도 제주시 조천읍 선흘리 1938-2,지엔텔,,33.4574092,126.7037176,2018-07-03,6500000,제주특별자치도,
이랜드파크켄싱턴리조트제주한림점,야외주차장,제주특별자치도,연중무휴,00:00,23:59,Y,N,,,,N,제주특별자치도 제주시 한림읍 한림해안로 530,제주특별자치도 제주시 한림읍 귀덕리 3861,지엔텔,,33.4358211,126.2745314,2018-07-03,6500000,제주특별자치도,
에코럭스,지하주차장,제주특별자치도,연중무휴,00:00,23:59,Y,N,,,,N,제주특별자치도 서귀포시 김정문화로 27번길 9-1,제주특별자치도 서귀포시 강정동 173-3,지엔텔,,33.2524649,126.5072896,2018-07-03,6500000,제주특별자치도,
라온랜드 주식회사,야외주차장,제주특별자치도,연중무휴,00:00,23:59,Y,N,,,,N,제주특별자치도 제주시 한림읍 월림 7길 155,제주특별자치도 제주시 한림읍 월림리 산 8,지엔텔,,33.3555222,126.2420266,2018-07-03,6500000,제주특별자치도,
나인스파빌,야외주차장,제주특별자치도,연중무휴,00:00,23:59,Y,N,,,,N,제주특별자치도 제주시 애월읍 하광로 518,제주특별자치도 제주시 애월읍 광령리 2970,지엔텔,,33.4621944,126.4227085,2018-07-03,6500000,제주특별자치도,
아모르하우스,야외주차장,제주특별자치도,연중무휴,00:00,23:59,Y,N,,,,N,제주특별자치도 제주시 해맞이해안로 2060-18,제주특별자치도 제주시 구좌읍 종달리 1380,지엔텔,,33.5291668,126.8538817,2018-07-03,6500000,제주특별자치도,
㈜백상,야외주차장,제주특별자치도,연중무휴,00:00,23:59,Y,N,,,,N,제주특별자치도 서귀포시 안덕면 평화로 319번길 31-11,제주특별자치도 서귀포시 안덕면 서광리 2351,지엔텔,,33.2762284,126.3053462,2018-07-03,6500000,제주특별자치도,
아띠랑스,야외주차장,제주특별자치도,연중무휴,00:00,23:59,Y,N,,,,N,제주특별자치도 서귀포시 성산읍 해맞이해안로 2614,제주특별자치도 서귀포시 성산읍 시흥리 10,지엔텔,,33.4777761,126.9091132,2018-07-03,6500000,제주특별자치도,
블루마운틴커피랜드,야외주차장,제주특별자치도,연중무휴,00:00,23:59,Y,N,,,,N,제주특별자치도 서귀포시 성산읍 중산간동로 4255,제주특별자치도 서귀포시 성산읍 삼달리 1510-1,지엔텔,,33.3801892,126.8371501,2018-07-03,6500000,제주특별자치도,
돈내코힐리조트,야외주차장,제주특별자치도,연중무휴,00:00,23:59,Y,N,,,,N,제주특별자치도 서귀포시 돈내코로 178,제주특별자치도 서귀포시 상효동 2205-3,지엔텔,,33.3053883,126.5774568,2018-07-03,6500000,제주특별자치도,
그랜드메르호텔,야외주차장,제주특별자치도,연중무휴,00:00,23:59,Y,N,,,,N,제주특별자치도 서귀포시 논짓물로 45,제주특별자치도 서귀포시 하예동 460-1,지엔텔,,33.2395805,126.3863731,2018-07-03,6500000,제주특별자치도,
오드리인제주/㈜갤러리,야외주차장,제주특별자치도,연중무휴,00:00,23:59,Y,N,,,,N,제주특별자치도 제주시 서해안로 100,제주특별자치도 제주시 이호1동 345,지엔텔,,33.5110314,126.4802212,2018-07-03,6500000,제주특별자치도,
크리스마스,야외주차장,제주특별자치도,연중무휴,00:00,23:59,Y,N,,,,N,제주특별자치도 제주시 구좌읍 해맞이해안로 2030-8,제주특별자치도 제주시 구좌읍 종달리 1422,지엔텔,,33.5088339,126.8996212,2018-07-03,6500000,제주특별자치도,
더썸하우스,야외주차장,제주특별자치도,연중무휴,00:00,23:59,Y,N,,,,N,제주특별자치도 서귀포시 성산읍 난고로 42번길 110,제주특별자치도 서귀포시 성산읍 고성리 1652-1,지엔텔,,33.4433216,126.9065691,2018-07-03,6500000,제주특별자치도,
조은리조트,야외주차장,제주특별자치도,연중무휴,00:00,23:59,Y,N,,,,N,제주특별자치도 서귀포시 이어도로 721,제주특별자치도 서귀포시 강정동 2486,지엔텔,,33.2358824,126.4920943,2018-07-03,6500000,제주특별자치도,
동백동산,야외주차장,제주특별자치도,연중무휴,00:00,23:59,Y,N,,,,N,제주특별자치도 제주시 조천읍 북흘로 378,제주특별자치도 제주시 조천읍 선흘리 999,지엔텔,,33.534457,126.7004904,2018-07-03,6500000,제주특별자치도,
지중해리조트,야외주차장,제주특별자치도,연중무휴,00:00,23:59,Y,N,,,,N,제주특별자치도 서귀포시 남원읍 남태해안로 445,제주특별자치도 서귀포시 남원읍 태흥리 1148,지엔텔,,33.2829039,126.7469756,2018-07-03,6500000,제주특별자치도,
㈜에이치엠자산관리,야외주차장,제주특별자치도,고객외 이용불가,00:00,23:59,Y,N,,,,N,제주특별자치도 서귀포시 대정읍 에듀시티로 102,제주특별자치도 서귀포시 대정읍 보성리 2417,지엔텔,,33.286509,126.281098,2018-07-03,6500000,제주특별자치도,
동복리671,야외주차장,제주특별자치도,연중무휴,00:00,23:59,Y,N,,,,N,제주특별자치도 제주시 구좌읍 구좌해안로 52-13,제주특별자치도 제주시 구좌읍 동복리 671,지엔텔,,33.5561229,126.7205363,2018-07-03,6500000,제주특별자치도,
하이랜드,야외주차장,제주특별자치도,연중무휴,00:00,23:59,Y,N,,,,N,제주특별자치도 서귀포시 이어도로 244,제주특별자치도 서귀포시 대포동 2270,지엔텔,,33.2422489,126.4453293,2018-07-03,6500000,제주특별자치도,
브런치더썸,야외주차장,제주특별자치도,연중무휴,00:00,23:59,Y,N,,,,N,제주특별자치도 서귀포시 일주동로 8921,제주특별자치도 서귀포시 호근동 566,지엔텔,,33.2521893,126.5379776,2018-07-03,6500000,제주특별자치도,
오션베스트빌구내,야외주차장,제주특별자치도,연중무휴,00:00,23:59,Y,N,,,,N,제주특별자치도 제주시 조천읍 조함해안로 221,제주특별자치도 제주시 조천읍 신흥리 791,지엔텔,,33.5530886,126.6447555,2018-07-03,6500000,제주특별자치도,
알프스보석궁전테마파크,야외주차장,제주특별자치도,연중무휴,00:00,23:59,Y,N,,,,N,제주특별자치도 제주시 한경면 연명로 159-7,제주특별자치도 제주시 한경면 청수리 958,지엔텔,,33.2910222,126.2492299,2018-07-03,6500000,제주특별자치도,
도라미펜션,야외주차장,제주특별자치도,연중무휴,00:00,23:59,Y,N,,,,N,제주특별자치도 서귀포시 일주동로 8215,제주특별자치도 서귀포시 신효동 924,지엔텔,,33.255487,126.5686054,2018-07-03,6500000,제주특별자치도,
나우씨앤씨,야외주차장,제주특별자치도,연중무휴,00:00,23:59,Y,N,,,,N,제주특별자치도 서귀포시 하신상로 166,제주특별자치도 서귀포시 신효동 506-9,지엔텔,,33.2761847,126.6067488,2018-07-03,6500000,제주특별자치도,
소금막호스텔,야외주차장,제주특별자치도,연중무휴,00:00,23:59,Y,N,,,,N,제주특별자치도 서귀포시 쇠소깍로 151-10,제주특별자치도 서귀포시 하효동 1028-2,지엔텔,,33.2503895,126.6205806,2018-07-03,6500000,제주특별자치도,
제주아이브,야외주차장,제주특별자치도,연중무휴,00:00,23:59,Y,N,,,,N,제주특별자치도 서귀포시 산록남로 1966-34,제주특별자치도 서귀포시 영남동 224-1,지엔텔,,33.2881355,126.4969259,2018-07-03,6500000,제주특별자치도,
디스이즈핫,야외주차장,제주특별자치도,연중무휴,00:00,23:59,Y,N,,,,N,제주특별자치도 제주시 구좌읍 하도15길 153-5,제주특별자치도 제주시 구좌읍 하도리 59-1,지엔텔,,33.5131782,126.8973861,2018-07-03,6500000,제주특별자치도,
갯그시,야외주차장,제주특별자치도,연중무휴,00:00,23:59,Y,N,,,,N,제주특별자치도 서귀포시 성산읍 환해장성로 469,제주특별자치도 서귀포시 성산읍 온평리 1191,지엔텔,,33.4121987,126.9047711,2018-07-03,6500000,제주특별자치도,
금앤옥통나무펜션,야외주차장,제주특별자치도,연중무휴,00:00,23:59,Y,N,,,,N,제주특별자치도 서귀포시 남원읍 중산간동로 7141번길 6,제주특별자치도 서귀포시 남원읍 신례리 729-1,지엔텔,,33.282069,126.630107,2018-07-03,6500000,제주특별자치도,
선스토리,야외주차장,제주특별자치도,연중무휴,00:00,23:59,Y,N,,,,N,제주특별자치도 서귀포시 표선면 표선백사로 60번길 72,제주특별자치도 서귀포시 표선면 표선리 1160-1,지엔텔,,33.3164616,126.8377788,2018-07-03,6500000,제주특별자치도,
에띠에호스텔,야외주차장,제주특별자치도,연중무휴,00:00,23:59,Y,N,,,,N,제주특별자치도 서귀포시 이어도로 738,제주특별자치도 서귀포시 강정동 2503-1,지엔텔,,33.240469,126.493008,2018-07-03,6500000,제주특별자치도,
가산토방,야외주차장,제주특별자치도,연중무휴,00:00,23:59,Y,N,,,,N,제주특별자치도 서귀포시 인정오름로 90,제주특별자치도 서귀포시 토평동 3077,지엔텔,,33.2873173,126.5775863,2018-07-03,6500000,제주특별자치도,
파인힐호텔,야외주차장,제주특별자치도,연중무휴,00:00,23:59,Y,N,,,,N,제주특별자치도 서귀포시 부두로 44,제주특별자치도 서귀포시 서귀동 776-1,지엔텔,,33.241328,126.5644681,2018-07-03,6500000,제주특별자치도,
모던플레이스,야외주차장,제주특별자치도,연중무휴,00:00,23:59,Y,N,,,,N,제주특별자치도 서귀포시 상예로 262,제주특별자치도 서귀포시 상예동 185-1,지엔텔,,33.2585723,126.392539,2018-07-03,6500000,제주특별자치도,
중앙교회,야외주차장,제주특별자치도,연중무휴,00:00,23:59,Y,N,,,,N,제주특별자치도 제주시 연사길 17,제주특별자치도 제주시 오라2동 953-2,지엔텔,,33.4877657,126.508931,2018-07-03,6500000,제주특별자치도,
제주스카이휴양펜션,야외주차장,제주특별자치도,연중무휴,00:00,23:59,Y,N,,,,N,제주특별자치도 서귀포시 표선면 세성로 352-32,제주특별자치도 서귀포시 표선면 세화리 1002-2,지엔텔,,33.3355222,126.7983666,2018-07-03,6500000,제주특별자치도,
메이더호텔,야외주차장,제주특별자치도,연중무휴,00:00,23:59,Y,N,,,,N,제주특별자치도 제주시 구좌읍 일주동로 1626,제주특별자치도 제주시 구좌읍 동복리 1652-2,지엔텔,,33.5523722,126.7058347,2018-07-03,6500000,제주특별자치도,
㈜제주테마조각공원,야외주차장,제주특별자치도,연중무휴,00:00,23:59,Y,N,,,,N,제주특별자치도 제주시 1100로 2894-72,제주특별자치도 제주시 연동 680-26,지엔텔,,33.4519922,126.4890053,2018-07-03,6500000,제주특별자치도,
제주 서비스센터,주차장,제주특별자치도,고객외 이용불가,00:00,23:59,N,Y,,,,N,제주특별자치도 제주시 조천읍 일주동로 1323,,현대자동차,,33.5393639,126.681838,2018-07-03,6500000,제주특별자치도,
산지공업사,주차장,제주특별자치도,고객외 이용불가,00:00,23:59,N,Y,,,,N,제주특별자치도 제주시 선반로 62,,현대자동차,,33.5148929,126.5645359,2018-07-03,6500000,제주특별자치도,
제주 사옥,주차장,제주특별자치도,고객외 이용불가,00:00,23:59,N,Y,,,,N,제주특별자치도 제주시 연동 291-44,,현대자동차,,33.4899806,126.4956776,2018-07-03,6500000,제주특별자치도,
GS25 너울빌리지점,주차장,제주특별자치도,연중무휴,00:00,23:59,N,Y,,,,N,제주특별자치도 제주시 한경면 일주서로 4469,제주특별자치도 제주시 한경면 금등리 646,한국전기차충전서비스,,33.3414039,126.1898997,2018-07-03,6500000,제주특별자치도,
현대자동차 블루핸즈 노형북부점,주차장,제주특별자치도,연중무휴,00:00,23:59,N,Y,,,,N,제주특별자치도 제주시 월광로 43,제주특별자치도 제주시 노형동 2820-1,한국전기차충전서비스,,33.4854792,126.4655444,2018-07-03,6500000,제주특별자치도,
현대자동차 블루핸즈 한림점,주차장,제주특별자치도,연중무휴,00:00,23:59,Y,Y,,,,N,제주특별자치도 제주시 한림읍 일주서로 5697,제주특별자치도 제주시 한림읍 귀덕리 3738-8,한국전기차충전서비스,,33.4095489,126.2638736,2018-07-03,6500000,제주특별자치도,
현대자동차 블루핸즈 아라점,주차장,제주특별자치도,연중무휴,00:00,23:59,Y,Y,,,,N,제주특별자치도 제주시 아봉로 11,제주특별자치도 제주시 아라2동 1622-3,한국전기차충전서비스,,33.4734957,126.5712811,2018-07-03,6500000,제주특별자치도,
현대자동차 블루핸즈 연동점,주차장,제주특별자치도,연중무휴,00:00,23:59,Y,Y,,,,N,제주특별자치도 제주시 신대로21길 34-1,제주특별자치도 제주시 연동 456-2,한국전기차충전서비스,,33.4819314,126.5002893,2018-07-03,6500000,제주특별자치도,
GS25 안덕서광점,주차장,제주특별자치도,연중무휴,00:00,23:59,N,Y,,,,N,제주특별자치도 서귀포시 안덕면 중산간서로 1882,제주특별자치도 서귀포시 안덕면 서광리 716-1,한국전기차충전서비스,,33.2862497,126.3077305,2018-07-03,6500000,제주특별자치도,
제주지방합동청사,주차장,제주특별자치도,연중무휴,00:00,23:59,Y,Y,,,,N,제주특별자치도 제주시 청사로 59,제주특별자치도 제주시 도남동 662,한국전기차충전서비스,,33.490454,126.5253079,2018-07-03,6500000,제주특별자치도,
라마다호텔 제주,주차장,제주특별자치도,연중무휴,00:00,23:59,Y,Y,,,,N,제주특별자치도 제주시 탑동로 66,제주특별자치도 제주시 삼도2동 1254,한국전기차충전서비스,,33.5185924,126.5175016,2018-07-03,6500000,제주특별자치도,
형제공업사,주차장,제주특별자치도,연중무휴,00:00,23:59,N,Y,,,,N,제주특별자치도 제주시 일주서로 7266,제주특별자치도 제주시 외도 1동 2023-5,한국전기차충전서비스,,33.4916411,126.4237923,2018-07-03,6500000,제주특별자치도,
탑동2공영주차장,주차장,제주특별자치도,연중무휴,00:00,23:59,N,Y,,,,N,제주특별자치도 제주시 삼도2동 1257,,한국전기차충전서비스,,33.5182983,126.5198951,2018-07-03,6500000,제주특별자치도,
제주대학교 병원,주차장,제주특별자치도,연중무휴,00:00,23:59,Y,Y,,,,N,제주특별자치도 제주시 아란13길 15,제주특별자치도 제주시 아라1동 1753-3,한국전기차충전서비스,,33.4670429,126.5457558,2018-07-03,6500000,제주특별자치도,
하귀 농협 장례식장,주차장,제주특별자치도,연중무휴,00:00,23:59,Y,Y,,,,N,제주특별자치도 제주시 애조로 405,제주특별자치도 제주시 애월읍 광령리 3672-1,한국전기차충전서비스,,33.4730618,126.4265546,2018-07-03,6500000,제주특별자치도,
애월농협 하나로마트,주차장,제주특별자치도,연중무휴,00:00,23:59,Y,Y,,,,N,제주특별자치도 제주시 애원로 41,제주특별자치도 제주시 애월읍 애월리 1400-1,한국전기차충전서비스,,33.460321,126.3215331,2018-07-03,6500000,제주특별자치도,
하귀 농협 복지센터,주차장,제주특별자치도,연중무휴,00:00,23:59,Y,Y,,,,N,제주특별자치도 제주시 일주서로 7020,제주특별자치도 제주시 애월읍 하귀2리 1763-1,한국전기차충전서비스,,33.466277,126.3511114,2018-07-03,6500000,제주특별자치도,
연동공영주차장,지상1층,제주특별자치도,연중무휴,00:00,23:59,N,Y,,,,N,제주특별자치도 제주시 연동 272-31,,한국전기차충전서비스,,33.4890445,126.491207,2018-07-03,6500000,제주특별자치도,
한국충전본사,주차장,제주특별자치도,연중무휴,00:00,23:59,Y,Y,,,,N,제주특별자치도 제주시 연삼로 61,제주특별자치도 제주시 연동 177,한국전기차충전서비스,,33.4938605,126.4991399,2018-07-03,6500000,제주특별자치도,
기아오토큐 오라동대리점,주차장,제주특별자치도,연중무휴,00:00,23:59,N,Y,,,,N,제주특별자치도 제주시 연삼로 116,제주특별자치도 제주시 오라3동 2811-4,한국전기차충전서비스,,33.5011704,126.5402581,2018-07-03,6500000,제주특별자치도,
롯데리아 제주외도 DT,주차장,제주특별자치도,연중무휴,00:00,23:59,Y,Y,,,,N,제주특별자치도 제주시 일주서로 7335,제주특별자치도 제주시 외도2동 343-9,한국전기차충전서비스,,33.4937504,126.4300165,2018-07-03,6500000,제주특별자치도,
제주공항 입구주차장,주차장,제주특별자치도,연중무휴,00:00,23:59,Y,N,,,,N,제주특별자치도 제주시 다호북길 7,제주특별자치도 제주시 용담2동 1611-2,한국전기차충전서비스,,33.5019756,126.4920848,2018-07-03,6500000,제주특별자치도,
일도이동공영주차장,주차장,제주특별자치도,연중무휴,00:00,23:59,N,Y,,,,N,제주특별자치도 제주시 일도2동 488-1,,한국전기차충전서비스,,33.5106341,126.5442435,2018-07-03,6500000,제주특별자치도,
조천농협 농산물산지유통센터,주차장,제주특별자치도,연중무휴,00:00,23:59,Y,Y,,,,N,제주특별자치도 제주시 일주동로 757,제주특별자치도 제주시 조천읍 신촌리 1733-2,한국전기차충전서비스,,33.5314441,126.8206181,2018-07-03,6500000,제주특별자치도,
한경농협,주차장,제주특별자치도,연중무휴,00:00,23:59,Y,Y,,,,N,제주특별자치도 제주시 신한로 76,제주특별자치도 제주시 한경면 신창리 18-2,한국전기차충전서비스,,33.3465629,126.1902065,2018-07-03,6500000,제주특별자치도,
기아오토큐 화북대리점,주차장,제주특별자치도,연중무휴,00:00,23:59,Y,N,,,,N,제주특별자치도 제주시 일주동로 14,제주특별자치도 제주시 화북2동 4837-1,한국전기차충전서비스,,33.5118008,126.5492415,2018-07-03,6500000,제주특별자치도,
롯데하이마트 신제주점,주차장,제주특별자치도,연중무휴,00:00,23:59,Y,N,,,,N,제주특별자치도 제주시 도령로 16,제주특별자치도 제주시 노형동 903-3,한국전기차충전서비스,,33.4865713,126.4812285,2018-07-03,6500000,제주특별자치도,
KT 성산포지사,주차장,제주특별자치도,연중무휴,00:00,23:59,Y,Y,,,,N,제주특별자치도 서귀포시 서성일로 1244-3,제주특별자치도 서귀포시 성산읍 고성리 1106-7,한국전기차충전서비스,,33.4268965,126.8647243,2018-07-03,6500000,제주특별자치도,
위미 농협,주차장,제주특별자치도,연중무휴,00:00,23:59,N,Y,,,,N,제주특별자치도 서귀포시 태위로 126,제주특별자치도 서귀포시 남원읍 위미리 2832-6,한국전기차충전서비스,,33.2745832,126.6609677,2018-07-03,6500000,제주특별자치도,
희준카센타,주차장,제주특별자치도,연중무휴,00:00,23:59,N,Y,,,,N,제주특별자치도 서귀포시 일주서로 2968,제주특별자치도 서귀포시 대정읍 일과리 1821-1,한국전기차충전서비스,,33.2402708,126.2507128,2018-07-03,6500000,제주특별자치도,
약천사,주차장,제주특별자치도,연중무휴,00:00,23:59,Y,Y,,,,N,제주특별자치도 서귀포시 하원동 1698-1,,한국전기차충전서비스,,33.326215,126.4716831,2018-07-03,6500000,제주특별자치도,
코리아마트,주차장,제주특별자치도,연중무휴,00:00,23:59,N,Y,,,,N,제주특별자치도 서귀포시 동홍서로 42-6,제주특별자치도 서귀포시 동홍동 644-3,한국전기차충전서비스,,33.2523774,126.570198,2018-07-03,6500000,제주특별자치도,
대유랜드,주차장,제주특별자치도,연중무휴,00:00,23:59,Y,Y,,,,N,제주특별자치도 서귀포시 상예로 381,제주특별자치도 서귀포시 상예동 145,한국전기차충전서비스,,33.2787568,126.394896,2018-07-03,6500000,제주특별자치도,
㈜상효원,주차장,제주특별자치도,연중무휴,00:00,23:59,Y,Y,,,,N,제주특별자치도 서귀포시 산록남로 2847-37,제주특별자치도 서귀포시 상효동 산 25,한국전기차충전서비스,,33.306381,126.5843885,2018-07-03,6500000,제주특별자치도,
롯데호텔,주차장,제주특별자치도,연중무휴,00:00,23:59,Y,Y,,,,N,제주특별자치도 서귀포시 중문관광로72번길 35,제주특별자치도 서귀포시 색달동 2812-4,한국전기차충전서비스,,33.2485349,126.4103936,2018-07-03,6500000,제주특별자치도,
천지공영주차장,지상1층,제주특별자치도,연중무휴,00:00,23:59,Y,Y,,,,N,제주특별자치도 서귀포시 서귀동 305-1,,한국전기차충전서비스,,33.2515976,126.5594295,2018-07-03,6500000,제주특별자치도,
서귀포매일올레시장,지상2층,제주특별자치도,연중무휴,00:00,23:59,N,Y,,,,N,제주특별자치도 서귀포시 중앙로62번길,제주특별자치도 서귀포시 서귀동 277-2,한국전기차충전서비스,,33.2515016,126.5638433,2018-07-03,6500000,제주특별자치도,
성산일출봉,주차장,제주특별자치도,연중무휴,00:00,23:59,Y,Y,,,,N,제주특별자치도 서귀포시 일출로 284-6,제주특별자치도 서귀포시 성산읍 성산리 114-3,한국전기차충전서비스,,33.4624691,126.9352237,2018-07-03,6500000,제주특별자치도,
동광 R 주차장,주차장,제주특별자치도,연중무휴,00:00,23:59,N,Y,,,,N,제주특별자치도 서귀포시 안덕면 동광리 827,,한국전기차충전서비스,,33.3109558,126.3416458,2018-07-03,6500000,제주특별자치도,
안덕농협 하나로마트,주차장,제주특별자치도,연중무휴,00:00,23:59,Y,N,,,,N,제주특별자치도 서귀포시 화순로 122,제주특별자치도 서귀포시 안덕면 화순리 1089-1,한국전기차충전서비스,,33.2465809,126.333321,2018-07-03,6500000,제주특별자치도,
서귀포시축산업협동조합(한우명품관),주차장,제주특별자치도,연중무휴,00:00,23:59,Y,Y,,,,N,제주특별자치도 서귀포시 일주동로 8421,제주특별자치도 서귀포시 토평동 262-1 ),한국전기차충전서비스,,33.2572426,126.5885177,2018-07-03,6500000,제주특별자치도,
성읍랜드,주차장,제주특별자치도,연중무휴,00:00,23:59,Y,Y,,,,N,제주특별자치도 서귀포시 표선면 번영로 2650,제주특별자치도 서귀포시 (표선면 성읍리 2045-1),한국전기차충전서비스,,33.3726822,126.7971235,2018-07-03,6500000,제주특별자치도,
표선농협 하나로마트,주차장,제주특별자치도,연중무휴,00:00,23:59,Y,Y,,,,N,제주특별자치도 서귀포시 표선동서로 233,제주특별자치도 서귀포시 (표선면 표선리 684),한국전기차충전서비스,,33.3247771,126.8319867,2018-07-03,6500000,제주특별자치도,
GS25 서귀대포점,주차장,제주특별자치도,연중무휴,00:00,23:59,N,Y,,,,N,제주특별자치도 서귀포시 이어도로 129,제주특별자치도 서귀포시 대포동 2411-1),한국전기차충전서비스,,33.2391543,126.4362409,2018-07-03,6500000,제주특별자치도,
롯데하이마트 서귀포점,주차장,제주특별자치도,연중무휴,00:00,23:59,Y,N,,,,N,제주특별자치도 서귀포시 일주동로 8631,제주특별자치도 서귀포시 동홍동 458-5),한국전기차충전서비스,,33.2539126,126.5661853,2018-07-03,6500000,제주특별자치도,
GS25중문사거리점,주차장,제주특별자치도,연중무휴,00:00,23:59,N,Y,,,,N,제주특별자치도 서귀포시 중문로 80,제주특별자치도 서귀포시 (중문동 1351-1),한국전기차충전서비스,,33.258334,126.4214249,2018-07-03,6500000,제주특별자치도,
현대자동차 블루핸즈 외도점,주차장,제주특별자치도,연중무휴,00:00,23:59,Y,N,,,,N,제주특별자치도 제주시 우평로 345-8,제주특별자치도 제주시 (외도1동 1350-1),한국전기차충전서비스,,33.4810832,126.4510066,2018-07-03,6500000,제주특별자치도,
함덕농협하나로마트,주차장,제주특별자치도,연중무휴,00:00,23:59,N,Y,,,,N,제주특별자치도 제주시 조천읍 함와로 40,제주특별자치도 제주시 조천읍 (함덕리 72-4),한국전기차충전서비스,,33.536657,126.674625,2018-07-03,6500000,제주특별자치도,
제주시농협 하나로마트 제주점,주차장,제주특별자치도,연중무휴,00:00,23:59,N,Y,,,,N,제주특별자치도 제주시 남광로 206,제주특별자치도 제주시 (건입동 49-1),한국전기차충전서비스,,33.5029625,126.553699,2018-07-03,6500000,제주특별자치도,
제주대학교 제2도서관,주차장,제주특별자치도,연중무휴,00:00,23:59,Y,N,,,,N,제주특별자치도 제주시 제주대학로 102,제주특별자치도 제주시 아라1동 1),한국전기차충전서비스,,33.4553037,126.5616176,2018-07-03,6500000,제주특별자치도,
제주대학교 학생주차장,주차장,제주특별자치도,연중무휴,00:00,23:59,Y,Y,,,,N,제주특별자치도 제주시 제주대학로 102,제주특별자치도 제주시 아라1동 1),한국전기차충전서비스,,33.4553037,126.5616176,2018-07-03,6500000,제주특별자치도,
아모렉스 리조트,주차장,제주특별자치도,연중무휴,00:00,23:59,Y,N,,,,N,제주특별자치도 제주시 서해안로 216,제주특별자치도 제주시 도두1동 1742),한국전기차충전서비스,,33.5074916,126.4702754,2018-07-03,6500000,제주특별자치도,
남원농협 하나로마트,주차장,제주특별자치도,연중무휴,00:00,23:59,N,Y,,,,N,제주특별자치도 서귀포시 남원읍 남조로 52,제주특별자치도 서귀포시 남원읍 남원리 226),한국전기차충전서비스,,33.3190481,126.7087521,2018-07-03,6500000,제주특별자치도,
제주시농협 하나로유통센터,주차장,제주특별자치도,연중무휴,00:00,23:59,Y,N,,,,N,제주특별자치도 제주시 월광로 77,제주특별자치도 제주시 노형동 2860),한국전기차충전서비스,,33.4877055,126.4680465,2018-07-03,6500000,제주특별자치도,
넥슨박물관,주차장,제주특별자치도,연중무휴,00:00,23:59,Y,Y,,,,N,제주특별자치도 제주시 1100로 3198-8,제주특별자치도 제주시 노형동 86),한국전기차충전서비스,,33.4723868,126.485337,2018-07-03,6500000,제주특별자치도,
NH농협은행 제주수련원,주차장,제주특별자치도,연중무휴,00:00,23:59,Y,Y,,,,N,제주특별자치도 서귀포시 표선면 세화리 1569,,한국전기차충전서비스,,33.305920,126.7946278,2018-07-03,6500000,제주특별자치도,
하얏트 리젠시 제주 호텔,주차장,제주특별자치도,연중무휴,00:00,23:59,Y,N,,,,N,제주특별자치도 서귀포시 중문관광로 72번길 114,제주특별자치도 서귀포시 색달동 3039-1),한국전기차충전서비스,,33.2455761,126.4055533,2018-07-03,6500000,제주특별자치도,
잠도둑 게스트하우스,주차장,제주특별자치도,연중무휴,00:00,23:59,N,Y,,,,N,제주특별자치도 서귀포시 성산읍 일주동로 5379,제주특별자치도 서귀포시 (성산읍 신풍리 37),한국전기차충전서비스,,33.416346,126.889907,2018-07-03,6500000,제주특별자치도,
제주바다목장,주차장,제주특별자치도,연중무휴,00:00,23:59,Y,Y,,,,N,제주특별자치도 제주시 한경면 한경해안로 565,제주특별자치도 제주시 (한경면 신창리 542-9),한국전기차충전서비스,,33.3328723,126.1697983,2018-07-03,6500000,제주특별자치도,
다이아나호텔,주차장,제주특별자치도,연중무휴,00:00,23:59,N,Y,,,,N,제주특별자치도 제주시 임항로 249,제주특별자치도 제주시 건입동 658-1),한국전기차충전서비스,,33.5183479,126.5387193,2018-07-03,6500000,제주특별자치도,
제주필하우스,주차장,제주특별자치도,연중무휴,00:00,23:59,N,Y,,,,N,제주특별자치도 제주시 조천읍 일주동로 1415,제주특별자치도 제주시 (조천읍 북촌리 1586-1),한국전기차충전서비스,,33.544947,126.6863809,2018-07-03,6500000,제주특별자치도,
선반내주유소,주차장,제주특별자치도,연중무휴,00:00,23:59,N,Y,,,,N,제주특별자치도 서귀포시 일주동로 8780,제주특별자치도 서귀포시 서홍동 1153),한국전기차충전서비스,,33.2529872,126.5509089,2018-07-03,6500000,제주특별자치도,
스프링데일CC(동국개발),주차장,제주특별자치도,연중무휴,00:00,23:59,Y,N,,,,N,제주특별자치도 서귀포시 남원읍 서성로 459,,한국전기차충전서비스,,33.3245683,126.6627718,2018-07-03,6500000,제주특별자치도,
켄싱턴 제주 호텔,주차장,제주특별자치도,연중무휴,00:00,23:59,Y,N,,,,N,제주특별자치도 서귀포시 중문관광로72번길 60,,한국전기차충전서비스,,33.2520261,126.4077400,2018-07-03,6500000,제주특별자치도,
WE호텔,주차장,제주특별자치도,연중무휴,00:00,23:59,Y,N,,,,N,제주특별자치도 서귀포시 1100로 453-95,,한국전기차충전서비스,,33.2862186,126.4442655,2018-07-03,6500000,제주특별자치도,
하모니리조트,주차장,제주특별자치도,연중무휴,00:00,23:59,Y,N,,,,N,제주특별자치도 제주시 한림읍 협재로 213,,한국전기차충전서비스,,33.3870114,126.2623205,2018-07-03,6500000,제주특별자치도,
피노호텔,주차장,제주특별자치도,연중무휴,00:00,23:59,Y,N,,,,N,제주특별자치도 서귀포시 천지연로29번길 5,,한국전기차충전서비스,,33.2408733,126.5631225,2018-07-03,6500000,제주특별자치도,
펄리호텔,주차장,제주특별자치도,연중무휴,00:00,23:59,Y,N,,,,N,제주특별자치도 제주시 노형로 79,,한국전기차충전서비스,,33.4838727,126.4699215,2018-07-03,6500000,제주특별자치도,
중문메리디안,주차장,제주특별자치도,고객외 이용불가,00:00,23:59,Y,N,,,,N,제주특별자치도 서귀포시 1100로 36,,한국전기차충전서비스,,33.2862573,126.4440737,2018-07-03,6500000,제주특별자치도,
제주노블레스관광호텔,주차장,제주특별자치도,연중무휴,00:00,23:59,Y,N,,,,N,제주특별자치도 제주시 월성로4길 19,,한국전기차충전서비스,,33.5014564,126.5034049,2018-07-03,6500000,제주특별자치도,
은빌레펜션,주차장,제주특별자치도,고객외 이용불가,00:00,23:59,Y,N,,,,N,제주특별자치도 서귀포시 남원읍 한신로 247-3,,한국전기차충전서비스,,33.3117075,126.7168645,2018-07-03,6500000,제주특별자치도,
세원멤버스,주차장,제주특별자치도,고객외 이용불가,00:00,23:59,Y,N,,,,N,제주특별자치도 제주시 원노형3길 13,,한국전기차충전서비스,,33.4864363,126.4844124,2018-07-03,6500000,제주특별자치도,
(주)샵원더,주차장,제주특별자치도,연중무휴,00:00,23:59,Y,N,,,,N,제주특별자치도 제주시 연북로 161,,한국전기차충전서비스,,33.4821031,126.4987553,2018-07-03,6500000,제주특별자치도,
세븐일레븐 제주함덕게스트하우스,주차장,제주특별자치도,고객외 이용불가,00:00,23:59,Y,N,,,,N,제주특별자치도 제주시 조천읍 신북로 643,,한국전기차충전서비스,,33.540729,126.6782084,2018-07-03,6500000,제주특별자치도,
레지나펜션,주차장,제주특별자치도,고객외 이용불가,00:00,23:59,Y,N,,,,N,제주특별자치도 서귀포시 이어도로 789,,한국전기차충전서비스,,33.2368373,126.4995612,2018-07-03,6500000,제주특별자치도,
명도암 마을회,주차장,제주특별자치도,고객외 이용불가,00:00,23:59,Y,N,,,,N,제주특별자치도 제주시 명림로 268-69,,한국전기차충전서비스,,33.4616354,126.6070908,2018-07-03,6500000,제주특별자치도,
허브펜션오즈,주차장,제주특별자치도,고객외 이용불가,00:00,23:59,Y,N,,,,N,제주특별자치도 서귀포시 표선면 표선백사로58번길 36,,한국전기차충전서비스,,33.3185108,126.8334258,2018-07-03,6500000,제주특별자치도,
난지축산연구소,주차장,제주특별자치도,고객외 이용불가,00:00,23:59,Y,N,,,,N,제주특별자치도 제주시 산록북로 593-50,,한국전기차충전서비스,,33.4274500,126.5482938,2018-07-03,6500000,제주특별자치도,
서귀포시 생활환경과,주차장,제주특별자치도,고객외 이용불가,00:00,23:59,Y,N,,,,N,제주특별자치도 서귀포시 산록남로1241번길 145,,한국전기차충전서비스,,33.3070418,126.419081,2018-07-03,6500000,제주특별자치도,
카멜리아힐,주차장,제주특별자치도,고객외 이용불가,00:00,23:59,Y,N,,,,N,제주특별자치도 서귀포시 안덕면 병악로 166,,한국전기차충전서비스,,33.2901143,126.3684044,2018-07-03,6500000,제주특별자치도,
꼬뜨도르호텔,주차장,제주특별자치도,고객외 이용불가,00:00,23:59,Y,N,,,,N,제주특별자치도 제주시 구좌읍 일주동로 1724,,한국전기차충전서비스,,33.5521173,126.7169202,2018-07-03,6500000,제주특별자치도,
관음사가는길,주차장,제주특별자치도,고객외 이용불가,00:00,23:59,Y,N,,,,N,제주특별자치도 제주시 산록북로 819,,한국전기차충전서비스,,33.4360741,126.5538129,2018-07-03,6500000,제주특별자치도,
성산아쿠아비치호텔,주차장,제주특별자치도,고객외 이용불가,00:00,23:59,Y,N,,,,N,제주특별자치도 서귀포시 성산읍 일주동로 4258,,한국전기차충전서비스,,33.4143696,126.8999778,2018-07-03,6500000,제주특별자치도,
이노우에스시,주차장,제주특별자치도,고객외 이용불가,00:00,23:59,Y,N,,,,N,제주특별자치도 제주시 과원로 78-1,,한국전기차충전서비스,,33.4771542,126.491468,2018-07-03,6500000,제주특별자치도,
평원헤모아빌,주차장,제주특별자치도,연중무휴,00:00,23:59,Y,N,,,,N,제주특별자치도 제주시 연사2길 76,,한국전기차충전서비스,,33.4859234,126.5131279,2018-07-03,6500000,제주특별자치도,
제주휴리조트,주차장,제주특별자치도,고객외 이용불가,00:00,23:59,Y,N,,,,N,제주특별자치도 서귀포시 성산읍 난고로 228,,한국전기차충전서비스,,33.4200962,126.8870067,2018-07-03,6500000,제주특별자치도,
종가전복,주차장,제주특별자치도,연중무휴,00:00,23:59,Y,N,,,,N,제주특별자치도 제주시 구좌읍 해맞이해안로 1306,,한국전기차충전서비스,,33.5291668,126.8538817,2018-07-03,6500000,제주특별자치도,
키아오라펜션,주차장,제주특별자치도,고객외 이용불가,00:00,23:59,Y,N,,,,N,제주특별자치도 서귀포시 성산읍 난고로42번길 3,,한국전기차충전서비스,,33.4342204,126.9050229,2018-07-03,6500000,제주특별자치도,
한국자동차공업사,주차장,제주특별자치도,연중무휴,00:00,23:59,Y,N,,,,N,제주특별자치도 제주시 오라로 72,,한국전기차충전서비스,,33.4954658,126.5109145,2018-07-03,6500000,제주특별자치도,
마레 호텔,주차장,제주특별자치도,고객외 이용불가,00:00,23:59,Y,N,,,,N,제주특별자치도 서귀포시 성산읍 섭지코지로25번길 29,,한국전기차충전서비스,,33.4417906,126.9188826,2018-07-03,6500000,제주특별자치도,
종이시계,주차장,제주특별자치도,고객외 이용불가,00:00,23:59,Y,N,,,,N,제주특별자치도 제주시 애월읍 애월해안로 899,,한국전기차충전서비스,,33.4853375,126.3918721,2018-07-03,6500000,제주특별자치도,
카이리조트,주차장,제주특별자치도,연중무휴,00:00,23:59,Y,N,,,,N,제주특별자치도 제주시 한림읍 협재2길 10,,한국전기차충전서비스,,33.393962,126.2390984,2018-07-03,6500000,제주특별자치도,
금강산콘도,주차장,제주특별자치도,연중무휴,00:00,23:59,Y,N,,,,N,제주특별자치도 제주시 한림읍 협재로 210-18,,한국전기차충전서비스,,33.3793824,126.2502022,2018-07-03,6500000,제주특별자치도,
라온프라이빗타운,주차장,제주특별자치도,연중무휴,00:00,23:59,Y,N,,,,N,제주특별자치도 제주시 한림읍 금능남로 127,,한국전기차충전서비스,,33.3760556,126.2441268,2018-07-03,6500000,제주특별자치도,
탐라스테이호텔제주,주차장,제주특별자치도,연중무휴,00:00,23:59,Y,N,,,,N,제주특별자치도 제주시 애월읍 애월해안로 881,,한국전기차충전서비스,,33.4782235,126.3665625,2018-07-03,6500000,제주특별자치도,
윈드힐호텔&리조트,주차장,제주특별자치도,연중무휴,00:00,23:59,Y,N,,,,N,제주특별자치도 제주시 애월읍 애월해안로 554-8,,한국전기차충전서비스,,33.4776427,126.3629501,2018-07-03,6500000,제주특별자치도,
베니키아호텔제주(1),주차장,제주특별자치도,연중무휴,00:00,23:59,Y,N,,,,N,제주특별자치도 제주시 애월읍 애월해안로 554-10,,한국전기차충전서비스,,33.4776427,126.3629501,2018-07-03,6500000,제주특별자치도,
베니키아호텔제주(2),주차장,제주특별자치도,연중무휴,00:00,23:59,Y,N,,,,N,제주특별자치도 제주시 애월읍 애월해안로 554-6,,한국전기차충전서비스,,33.4776427,126.3629501,2018-07-03,6500000,제주특별자치도,
(주)엠버서더호텔,주차장,제주특별자치도,연중무휴,00:00,23:59,Y,N,,,,N,제주특별자치도 제주시 삼무로 12,,한국전기차충전서비스,,33.489725,126.4878639,2018-07-03,6500000,제주특별자치도,
엠버리조트,주차장,제주특별자치도,연중무휴,00:00,23:59,Y,N,,,,N,제주특별자치도 제주시 1100로 2671-51,,한국전기차충전서비스,,33.4237259,126.4890631,2018-07-03,6500000,제주특별자치도,
신풍리마을회(게스트하우스),주차장,제주특별자치도,고객외 이용불가,00:00,23:59,Y,N,,,,N,제주특별자치도 서귀포시 성산읍 신풍하동로 37,,한국전기차충전서비스,,33.3627692,126.8401547,2018-07-03,6500000,제주특별자치도,
쉴띠하우스,주차장,제주특별자치도,연중무휴,00:00,23:59,Y,N,,,,N,제주특별자치도 서귀포시 안덕면 한창로 102-1,,한국전기차충전서비스,,33.2723241,126.3661767,2018-07-03,6500000,제주특별자치도,
아름다운리조트,주차장,제주특별자치도,고객외 이용불가,00:00,23:59,Y,N,,,,N,제주특별자치도 서귀포시 성산읍 해맞이해안로 2644,,한국전기차충전서비스,,33.4752383,126.9101641,2018-07-03,6500000,제주특별자치도,
하와이 관광호텔,주차장,제주특별자치도,연중무휴,00:00,23:59,Y,N,,,,N,제주특별자치도 제주시 사장3길 32,,한국전기차충전서비스,,33.4830625,126.4914979,2018-07-03,6500000,제주특별자치도,
스위스마을,주차장,제주특별자치도,연중무휴,00:00,23:59,Y,N,,,,N,제주특별자치도 제주시 조천읍 함와로 566-27,,한국전기차충전서비스,,33.49394448,126.6767733,2018-07-03,6500000,제주특별자치도,
곶자왈 숲펜션,주차장,제주특별자치도,연중무휴,00:00,23:59,Y,N,,,,N,제주특별자치도 제주시 조천읍 선교로 371-10,,한국전기차충전서비스,,33.472431,126.7090194,2018-07-03,6500000,제주특별자치도,
㈜튤립제주에이엠씨 호텔,주차장,제주특별자치도,고객외 이용불가,00:00,23:59,Y,N,,,,N,제주특별자치도 서귀포시 성산읍 일출로 31,,한국전기차충전서비스,,33.4479486,126.9162124,2018-07-03,6500000,제주특별자치도,
성산 플레이스,주차장,제주특별자치도,고객외 이용불가,00:00,23:59,Y,N,,,,N,제주특별자치도 서귀포시 성산읍 동류암로 20,,한국전기차충전서비스,,33.448917,126.9175588,2018-07-03,6500000,제주특별자치도,
